name,status,img,established,lat,lon,locality,zipcode,location_type,is_closed,street,region,in_planning,is_primary
#FREEDOM Craft Brewery,Verified,https://s3.amazonaws.com/brewerydbapi/brewery/YXDiJk/upload_eAMR3T-icon.png,2012.0,41.2645348,-73.9356068,Buchanan,10511,Micro Brewery,Y,3199 Albany Post Road,New York,N,Y
't Hofbrouwerijke,Verified,https://s3.amazonaws.com/brewerydbapi/brewery/Klgom2/upload_UZxn4s-icon.png,,51.0594198,4.6612503,Beerzel,2580,Micro Brewery,N,Hoogstraat 151,,N,Y
(512) Brewing Company,Verified,https://s3.amazonaws.com/brewerydbapi/brewery/cJio9R/upload_m6PBcA-icon.png,2008.0,30.2234,-97.769736,Austin,78745,Micro Brewery,N,407 Radam,Texas,N,Y
1. Chodsky pivovarek na Morave,Verified,https://s3.amazonaws.com/brewerydbapi/brewery/Ir7gCt/upload_82SuGw-icon.png,,49.014327,16.77976,Sitborice,691 76,Micro Brewery,N,Sitborice 29,,N,Y
1. Selský pivovárek Kroměříž,Verified,https://s3.amazonaws.com/brewerydbapi/brewery/mRKuMO/upload_bnIUoI-icon.png,,49.282829,17.363547,Kroměříž,767 01,Micro Brewery,N,Havlíčkova 4252/130,,N,Y
10 Barrel Brewing Company,Verified,https://s3.amazonaws.com/brewerydbapi/brewery/snQlvg/upload_lQ2Zwq-icon.png,2006.0,44.089005,-121.285385,Bend,97701,Office,N,20750 High Desert Ln,Oregon,N,N
10 Barrel Brewing Company,Verified,https://s3.amazonaws.com/brewerydbapi/brewery/snQlvg/upload_lQ2Zwq-icon.png,2006.0,44.0863837,-121.2806916,Bend,97701,Micro Brewery,N,62970 18th Street,Oregon,Y,N
10 Barrel Brewing Company,Verified,https://s3.amazonaws.com/brewerydbapi/brewery/snQlvg/upload_lQ2Zwq-icon.png,2006.0,44.0562359,-121.3286052,Bend,97701,Restaurant/Ale House,N,1135 NW Galveston Ave,Oregon,N,N
10 Barrel Brewing Company,Verified,https://s3.amazonaws.com/brewerydbapi/brewery/snQlvg/upload_lQ2Zwq-icon.png,2006.0,43.617859,-116.202689,Boise,83702,Brewpub,N,826 West Bannock Street,Idaho,N,Y
101 Brewing,Verified,,,47.8225013,-122.8754211,Quilcene,98376,Brewpub,N,294793 US Highway 101,Washington,N,N
101 Cider House,Verified,https://s3.amazonaws.com/brewerydbapi/brewery/yPwg15/upload_tnKkMf-icon.png,2013.0,34.1540847,-118.80249,Los Angeles County,91362,Cidery,N,31111 Via Colinas,California,N,Y
101 North Brewing Company,Verified,https://s3.amazonaws.com/brewerydbapi/brewery/IPhAuu/upload_Q8ozm6-icon.png,,38.2702161,-122.6652383,Petaluma,94954,Micro Brewery,N,1304 Scott St,California,N,Y
105 West Brewing Co.,Verified,https://s3.amazonaws.com/brewerydbapi/brewery/kxFzGQ/upload_7n1oq2-icon.png,,39.3807478,-104.8660237,Castle Rock,,Micro Brewery,N,1043 Park Street,Colorado,N,N
10K Brewing,Verified,https://s3.amazonaws.com/brewerydbapi/brewery/lhIRoP/upload_2odhvT-icon.png,,45.1982352,-93.3896162,Anoka,55303,Micro Brewery,N,2005 2nd Ave.,Minnesota,N,N
10th District Brewing Company,Verified,https://s3.amazonaws.com/brewerydbapi/brewery/9gtdCj/upload_lYxQYF-icon.png,,42.1063679,-70.9455853,Abington,02351,Nano Brewery,N,491 Washington Street,Massachusetts,N,N
11 Below Brewing,Verified,https://s3.amazonaws.com/brewerydbapi/brewery/MqGKPd/upload_mpsVFs-icon.png,,29.9526225,-95.5189336,Houston,,Micro Brewery,N,6820 Bourgeois Rd.,Texas,N,Y
1188 Brewing Company,Verified,https://s3.amazonaws.com/brewerydbapi/brewery/HNWXrd/upload_0xQr8d-icon.png,2012.0,44.4161059,-118.9518719,John Day,97845,Micro Brewery,N,141 East Main Street,Oregon,N,Y
12 Acres Brewing Company,Verified,https://s3.amazonaws.com/brewerydbapi/brewery/Za6Nem/upload_9mTo0y-icon.png,,0.0,0.0,,R93P2D8,Micro Brewery,N,,Killeshin,N,Y
12 Gates Brewing Company,Verified,,,42.9544152,-78.7146988,Williamsville,14221,Tasting Room,N,80 Earhart Dr.,New York,N,N
12 West Brewing Co.,Verified,https://s3.amazonaws.com/brewerydbapi/brewery/pnLmiu/upload_PtKUxP-icon.png,,33.4154694,-111.8321269,Mesa,85001,Micro Brewery,N,12 WEST MAIN STREET,Arizona,N,Y
127 Brewing,Verified,https://s3.amazonaws.com/brewerydbapi/brewery/9oltPu/upload_7fLGbX-icon.png,2014.0,42.2860115,-84.4312613,Jackson,49201,Micro Brewery,N,3090 Shirley Drive,Michigan,N,Y
12Degree Brewing,Verified,https://s3.amazonaws.com/brewerydbapi/brewery/Cg12u5/upload_sI1dKk-icon.png,2013.0,39.9782693,-105.13192,Louisville,80027,Micro Brewery,N,820 Main Street,Colorado,N,Y
13 Stripes Brewery,Verified,https://s3.amazonaws.com/brewerydbapi/brewery/A1PRmx/upload_vZQC7J-icon.png,2016.0,34.9192757,-82.2849205,Taylors,29687,Micro Brewery,N,250 Mill St,South Carolina,Y,N
13 Virtues Brewing Co,Verified,https://s3.amazonaws.com/brewerydbapi/brewery/u99e3l/upload_PPMtjD-icon.png,1994.0,45.4762533,-122.6488352,Portland,,Micro Brewery,N,6410 SE Miwaukie Ave.,Oregon,N,Y
14er Brewing Company,Verified,https://s3.amazonaws.com/brewerydbapi/brewery/MyqcuZ/upload_mG1Sdx-icon.png,2015.0,39.7392358,-104.990251,Denver,,Micro Brewery,N,,Colorado,N,Y
14th Star Brewing,Verified,https://s3.amazonaws.com/brewerydbapi/brewery/XYOIqp/upload_DjaYrv-icon.png,2011.0,44.8201794,-73.0852061,Saint Albans,05478,Micro Brewery,N,41 Lower Newton Street,Vermont,N,Y
16 Mile Brewing Company,Verified,https://s3.amazonaws.com/brewerydbapi/brewery/P8gV9M/upload_fd9HhU-icon.png,2009.0,38.6788301,-75.378169,Georgetown,19947,Micro Brewery,N,413 S. Bedford St,Delaware,N,Y
1668 Winery & Lockside Brewery,Verified,,,46.5002983,-84.3459866,Sault Sainte Marie,49783,Nano Brewery,N,100 W Portage Ave,Michigan,N,N
1781 Brewing Company,Verified,,2016.0,38.3244935,-77.7188554,Spotsylvania,22553,Micro Brewery,N,11109 Plank Road,Virginia,N,Y
1789 Brewery & Taphouse,Verified,https://s3.amazonaws.com/brewerydbapi/brewery/eRrmuR/upload_sVmEqJ-icon.png,,35.7826363,-80.8872959,Statesville,28625,Micro Brewery,N,,North Carolina,Y,Y
1859 Central Ranges Brewing Co,Verified,,,-33.43668,149.36353,Vittoria,2795,Brewpub,N,2319 Mitchell Highway,New South Wales,N,Y
18th Street Brewery,Verified,https://s3.amazonaws.com/brewerydbapi/brewery/wTxSsQ/upload_cgqdku-icon.png,2010.0,41.5990572,-87.267179,Gary,46403,Micro Brewery,N,5725 Miller Ave,Indiana,N,Y
1912 Brewing Company,Verified,https://s3.amazonaws.com/brewerydbapi/brewery/RQNLui/upload_LZ8R1P-icon.png,,32.2464609,-110.993871,Tucson,85745,Micro Brewery,N,2045 N Forbes Blvd.,Arizona,N,N
192 Brewing Company,Verified,https://s3.amazonaws.com/brewerydbapi/brewery/nFgA09/upload_ACCLxl-icon.png,2009.0,47.776554,-122.2351,Kenmore,98028,Micro Brewery,N,7811 Ne 205th Street,Washington,N,Y
192 Brewing Company,Verified,https://s3.amazonaws.com/brewerydbapi/brewery/nFgA09/upload_ACCLxl-icon.png,2009.0,47.7566065,-122.2424505,Kenmore,98028,Tasting Room,N,7324 NE 175th Street,Washington,N,N
1933 Brewing Company,Verified,https://s3.amazonaws.com/brewerydbapi/brewery/HQNyhH/upload_vGG1j1-icon.png,2014.0,40.5311387,-105.0801963,Fort Collins,80525,Micro Brewery,N,4025 S. Mason St.,Colorado,N,Y
1940's Brewing Company,Verified,https://s3.amazonaws.com/brewerydbapi/brewery/r4JMh7/upload_JjTxB2-icon.png,2014.0,40.783329,-73.08329,Holbrook,11741,Micro Brewery,N,1337-1 Lincoln Avenue,New York,N,Y
1974 Brewing Company,Verified,,2012.0,40.2453741,-75.6496302,Pottstown,,Nano Brewery,Y,,Pennsylvania,N,Y
2 Basset Brewery,Verified,https://s3.amazonaws.com/brewerydbapi/brewery/qfGVU4/upload_6CGM2H-icon.png,2016.0,46.54816,-110.9010709,White Sulphur Springs,,Micro Brewery,N,202 Main Street,Montana,N,Y
2 Row Brewing Co.,"New, Unverified",,,40.6265613,-111.9000987,Midvale,84047,Micro Brewery,N,6856 s. 300 w.,Utah,N,N
2 Towns Ciderhouse,Verified,https://s3.amazonaws.com/brewerydbapi/brewery/ZsEYA4/upload_5ob4Eh-icon.png,2010.0,44.5633722,-123.2259542,Corvallis,97333,Cidery,N,33930 SE Eastgate Circle,Oregon,N,Y
2 Way Brewing Company,Verified,,,41.5083675,-73.9810105,Beacon,12508,Micro Brewery,N,18 West Main Street,New York,N,N
"2 Witches Winery and Brewing Company, Inc.",Verified,,2012.0,36.5858251,-79.4213237,Danville,24541,Micro Brewery,N,209 Trade St,Virginia,Y,Y
217 Brew Works,Verified,,,35.7229468,-77.9121525,Wilson,27893,Micro Brewery,N,217 South Street South,North Carolina,Y,N
21st Amendment Brewery,Verified,https://s3.amazonaws.com/brewerydbapi/brewery/EdRcIs/upload_gfSGyp-icon.png,2000.0,37.7824892,-122.3924905,San Francisco,94107,Brewpub,N,563 Second Street,California,N,Y
21st Amendment Brewery,Verified,https://s3.amazonaws.com/brewerydbapi/brewery/EdRcIs/upload_gfSGyp-icon.png,2000.0,37.7131202,-122.170665,San Leandro,,Tasting Room,N,Williams St.,California,N,N
238 Brewing Company,Verified,https://s3.amazonaws.com/brewerydbapi/brewery/DYA1CI/upload_RIUk3b-icon.png,2015.0,47.830388,-117.265603,Mead,99021,Micro Brewery,N,10321 E Day Mt Spokane Rd,Washington,N,Y
23rd Street Brewery,Verified,https://s3.amazonaws.com/brewerydbapi/brewery/V79a57/upload_RZnvuW-icon.png,2006.0,38.9429975,-95.2810862,Lawrence,66047,Brewpub,N,3512 Clinton Parkway,Kansas,N,Y
26 Degree Brewing Company,Verified,https://s3.amazonaws.com/brewerydbapi/brewery/F7Flfn/upload_gduWaU-icon.png,,26.2312818,-80.0975418,Pompano Beach,,Micro Brewery,N,2600 E Atlantic Blvd.,Florida,N,Y
2C - Arte Cervejeira,Verified,https://s3.amazonaws.com/brewerydbapi/brewery/3k6A49/upload_9NEY4h-icon.png,,41.2696357,-8.0826488,Amarante,,Micro Brewery,N,,,N,N
2kids Brewing Company,Verified,https://s3.amazonaws.com/brewerydbapi/brewery/FkNXW1/upload_X7baLL-icon.png,2013.0,32.8966077,-117.1373279,San Diego,92126,Micro Brewery,N,8680 Miralani Dr.,California,N,Y
2nd Shift Brewing Co,Verified,https://s3.amazonaws.com/brewerydbapi/brewery/1ZnmlG/upload_GTiZFq-icon.png,,38.5435216,-91.1812857,New Haven,63068,Micro Brewery,N,101 Cedar Creek Rd,Missouri,N,Y
2nd Story Brewing Company,Verified,https://s3.amazonaws.com/brewerydbapi/brewery/vdEZ9j/upload_fq17DZ-icon.png,,39.9484739,-75.1435556,Philadelphia,19106,Brewpub,N,117 Chestnut St.,Pennsylvania,N,N
2SP Brewing Company,Verified,https://s3.amazonaws.com/brewerydbapi/brewery/VBusEz/upload_gKhoJB-icon.png,,39.8554651,-75.4036331,Aston,19014,Micro Brewery,N,120 Concord Rd.,Pennsylvania,N,N
3 Beards Beer Company,Verified,https://s3.amazonaws.com/brewerydbapi/brewery/Ya599O/upload_eZyZLE-icon.png,2010.0,42.2022941,-72.6046857,Holyoke,01532,Micro Brewery,N,189 W Main St,Massachusetts,N,Y
#FREEDOM Craft Brewery,Verified,https://s3.amazonaws.com/brewerydbapi/brewery/YXDiJk/upload_eAMR3T-icon.png,2012.0,41.2645348,-73.9356068,Buchanan,10511,Micro Brewery,Y,3199 Albany Post Road,New York,N,Y
't Hofbrouwerijke,Verified,https://s3.amazonaws.com/brewerydbapi/brewery/Klgom2/upload_UZxn4s-icon.png,,51.0594198,4.6612503,Beerzel,2580,Micro Brewery,N,Hoogstraat 151,,N,Y
(512) Brewing Company,Verified,https://s3.amazonaws.com/brewerydbapi/brewery/cJio9R/upload_m6PBcA-icon.png,2008.0,30.2234,-97.769736,Austin,78745,Micro Brewery,N,407 Radam,Texas,N,Y
1. Chodsky pivovarek na Morave,Verified,https://s3.amazonaws.com/brewerydbapi/brewery/Ir7gCt/upload_82SuGw-icon.png,,49.014327,16.77976,Sitborice,691 76,Micro Brewery,N,Sitborice 29,,N,Y
1. Selský pivovárek Kroměříž,Verified,https://s3.amazonaws.com/brewerydbapi/brewery/mRKuMO/upload_bnIUoI-icon.png,,49.282829,17.363547,Kroměříž,767 01,Micro Brewery,N,Havlíčkova 4252/130,,N,Y
10 Barrel Brewing Company,Verified,https://s3.amazonaws.com/brewerydbapi/brewery/snQlvg/upload_lQ2Zwq-icon.png,2006.0,44.089005,-121.285385,Bend,97701,Office,N,20750 High Desert Ln,Oregon,N,N
10 Barrel Brewing Company,Verified,https://s3.amazonaws.com/brewerydbapi/brewery/snQlvg/upload_lQ2Zwq-icon.png,2006.0,44.0863837,-121.2806916,Bend,97701,Micro Brewery,N,62970 18th Street,Oregon,Y,N
10 Barrel Brewing Company,Verified,https://s3.amazonaws.com/brewerydbapi/brewery/snQlvg/upload_lQ2Zwq-icon.png,2006.0,44.0562359,-121.3286052,Bend,97701,Restaurant/Ale House,N,1135 NW Galveston Ave,Oregon,N,N
10 Barrel Brewing Company,Verified,https://s3.amazonaws.com/brewerydbapi/brewery/snQlvg/upload_lQ2Zwq-icon.png,2006.0,43.617859,-116.202689,Boise,83702,Brewpub,N,826 West Bannock Street,Idaho,N,Y
101 Brewing,Verified,,,47.8225013,-122.8754211,Quilcene,98376,Brewpub,N,294793 US Highway 101,Washington,N,N
101 Cider House,Verified,https://s3.amazonaws.com/brewerydbapi/brewery/yPwg15/upload_tnKkMf-icon.png,2013.0,34.1540847,-118.80249,Los Angeles County,91362,Cidery,N,31111 Via Colinas,California,N,Y
101 North Brewing Company,Verified,https://s3.amazonaws.com/brewerydbapi/brewery/IPhAuu/upload_Q8ozm6-icon.png,,38.2702161,-122.6652383,Petaluma,94954,Micro Brewery,N,1304 Scott St,California,N,Y
105 West Brewing Co.,Verified,https://s3.amazonaws.com/brewerydbapi/brewery/kxFzGQ/upload_7n1oq2-icon.png,,39.3807478,-104.8660237,Castle Rock,,Micro Brewery,N,1043 Park Street,Colorado,N,N
10K Brewing,Verified,https://s3.amazonaws.com/brewerydbapi/brewery/lhIRoP/upload_2odhvT-icon.png,,45.1982352,-93.3896162,Anoka,55303,Micro Brewery,N,2005 2nd Ave.,Minnesota,N,N
10th District Brewing Company,Verified,https://s3.amazonaws.com/brewerydbapi/brewery/9gtdCj/upload_lYxQYF-icon.png,,42.1063679,-70.9455853,Abington,02351,Nano Brewery,N,491 Washington Street,Massachusetts,N,N
11 Below Brewing,Verified,https://s3.amazonaws.com/brewerydbapi/brewery/MqGKPd/upload_mpsVFs-icon.png,,29.9526225,-95.5189336,Houston,,Micro Brewery,N,6820 Bourgeois Rd.,Texas,N,Y
1188 Brewing Company,Verified,https://s3.amazonaws.com/brewerydbapi/brewery/HNWXrd/upload_0xQr8d-icon.png,2012.0,44.4161059,-118.9518719,John Day,97845,Micro Brewery,N,141 East Main Street,Oregon,N,Y
12 Acres Brewing Company,Verified,https://s3.amazonaws.com/brewerydbapi/brewery/Za6Nem/upload_9mTo0y-icon.png,,0.0,0.0,,R93P2D8,Micro Brewery,N,,Killeshin,N,Y
12 Gates Brewing Company,Verified,,,42.9544152,-78.7146988,Williamsville,14221,Tasting Room,N,80 Earhart Dr.,New York,N,N
12 West Brewing Co.,Verified,https://s3.amazonaws.com/brewerydbapi/brewery/pnLmiu/upload_PtKUxP-icon.png,,33.4154694,-111.8321269,Mesa,85001,Micro Brewery,N,12 WEST MAIN STREET,Arizona,N,Y
127 Brewing,Verified,https://s3.amazonaws.com/brewerydbapi/brewery/9oltPu/upload_7fLGbX-icon.png,2014.0,42.2860115,-84.4312613,Jackson,49201,Micro Brewery,N,3090 Shirley Drive,Michigan,N,Y
12Degree Brewing,Verified,https://s3.amazonaws.com/brewerydbapi/brewery/Cg12u5/upload_sI1dKk-icon.png,2013.0,39.9782693,-105.13192,Louisville,80027,Micro Brewery,N,820 Main Street,Colorado,N,Y
13 Stripes Brewery,Verified,https://s3.amazonaws.com/brewerydbapi/brewery/A1PRmx/upload_vZQC7J-icon.png,2016.0,34.9192757,-82.2849205,Taylors,29687,Micro Brewery,N,250 Mill St,South Carolina,Y,N
13 Virtues Brewing Co,Verified,https://s3.amazonaws.com/brewerydbapi/brewery/u99e3l/upload_PPMtjD-icon.png,1994.0,45.4762533,-122.6488352,Portland,,Micro Brewery,N,6410 SE Miwaukie Ave.,Oregon,N,Y
14er Brewing Company,Verified,https://s3.amazonaws.com/brewerydbapi/brewery/MyqcuZ/upload_mG1Sdx-icon.png,2015.0,39.7392358,-104.990251,Denver,,Micro Brewery,N,,Colorado,N,Y
14th Star Brewing,Verified,https://s3.amazonaws.com/brewerydbapi/brewery/XYOIqp/upload_DjaYrv-icon.png,2011.0,44.8201794,-73.0852061,Saint Albans,05478,Micro Brewery,N,41 Lower Newton Street,Vermont,N,Y
16 Mile Brewing Company,Verified,https://s3.amazonaws.com/brewerydbapi/brewery/P8gV9M/upload_fd9HhU-icon.png,2009.0,38.6788301,-75.378169,Georgetown,19947,Micro Brewery,N,413 S. Bedford St,Delaware,N,Y
1668 Winery & Lockside Brewery,Verified,,,46.5002983,-84.3459866,Sault Sainte Marie,49783,Nano Brewery,N,100 W Portage Ave,Michigan,N,N
1781 Brewing Company,Verified,,2016.0,38.3244935,-77.7188554,Spotsylvania,22553,Micro Brewery,N,11109 Plank Road,Virginia,N,Y
1789 Brewery & Taphouse,Verified,https://s3.amazonaws.com/brewerydbapi/brewery/eRrmuR/upload_sVmEqJ-icon.png,,35.7826363,-80.8872959,Statesville,28625,Micro Brewery,N,,North Carolina,Y,Y
1859 Central Ranges Brewing Co,Verified,,,-33.43668,149.36353,Vittoria,2795,Brewpub,N,2319 Mitchell Highway,New South Wales,N,Y
18th Street Brewery,Verified,https://s3.amazonaws.com/brewerydbapi/brewery/wTxSsQ/upload_cgqdku-icon.png,2010.0,41.5990572,-87.267179,Gary,46403,Micro Brewery,N,5725 Miller Ave,Indiana,N,Y
1912 Brewing Company,Verified,https://s3.amazonaws.com/brewerydbapi/brewery/RQNLui/upload_LZ8R1P-icon.png,,32.2464609,-110.993871,Tucson,85745,Micro Brewery,N,2045 N Forbes Blvd.,Arizona,N,N
192 Brewing Company,Verified,https://s3.amazonaws.com/brewerydbapi/brewery/nFgA09/upload_ACCLxl-icon.png,2009.0,47.776554,-122.2351,Kenmore,98028,Micro Brewery,N,7811 Ne 205th Street,Washington,N,Y
192 Brewing Company,Verified,https://s3.amazonaws.com/brewerydbapi/brewery/nFgA09/upload_ACCLxl-icon.png,2009.0,47.7566065,-122.2424505,Kenmore,98028,Tasting Room,N,7324 NE 175th Street,Washington,N,N
1933 Brewing Company,Verified,https://s3.amazonaws.com/brewerydbapi/brewery/HQNyhH/upload_vGG1j1-icon.png,2014.0,40.5311387,-105.0801963,Fort Collins,80525,Micro Brewery,N,4025 S. Mason St.,Colorado,N,Y
1940's Brewing Company,Verified,https://s3.amazonaws.com/brewerydbapi/brewery/r4JMh7/upload_JjTxB2-icon.png,2014.0,40.783329,-73.08329,Holbrook,11741,Micro Brewery,N,1337-1 Lincoln Avenue,New York,N,Y
1974 Brewing Company,Verified,,2012.0,40.2453741,-75.6496302,Pottstown,,Nano Brewery,Y,,Pennsylvania,N,Y
2 Basset Brewery,Verified,https://s3.amazonaws.com/brewerydbapi/brewery/qfGVU4/upload_6CGM2H-icon.png,2016.0,46.54816,-110.9010709,White Sulphur Springs,,Micro Brewery,N,202 Main Street,Montana,N,Y
2 Row Brewing Co.,"New, Unverified",,,40.6265613,-111.9000987,Midvale,84047,Micro Brewery,N,6856 s. 300 w.,Utah,N,N
2 Towns Ciderhouse,Verified,https://s3.amazonaws.com/brewerydbapi/brewery/ZsEYA4/upload_5ob4Eh-icon.png,2010.0,44.5633722,-123.2259542,Corvallis,97333,Cidery,N,33930 SE Eastgate Circle,Oregon,N,Y
2 Way Brewing Company,Verified,,,41.5083675,-73.9810105,Beacon,12508,Micro Brewery,N,18 West Main Street,New York,N,N
"2 Witches Winery and Brewing Company, Inc.",Verified,,2012.0,36.5858251,-79.4213237,Danville,24541,Micro Brewery,N,209 Trade St,Virginia,Y,Y
217 Brew Works,Verified,,,35.7229468,-77.9121525,Wilson,27893,Micro Brewery,N,217 South Street South,North Carolina,Y,N
21st Amendment Brewery,Verified,https://s3.amazonaws.com/brewerydbapi/brewery/EdRcIs/upload_gfSGyp-icon.png,2000.0,37.7824892,-122.3924905,San Francisco,94107,Brewpub,N,563 Second Street,California,N,Y
21st Amendment Brewery,Verified,https://s3.amazonaws.com/brewerydbapi/brewery/EdRcIs/upload_gfSGyp-icon.png,2000.0,37.7131202,-122.170665,San Leandro,,Tasting Room,N,Williams St.,California,N,N
238 Brewing Company,Verified,https://s3.amazonaws.com/brewerydbapi/brewery/DYA1CI/upload_RIUk3b-icon.png,2015.0,47.830388,-117.265603,Mead,99021,Micro Brewery,N,10321 E Day Mt Spokane Rd,Washington,N,Y
23rd Street Brewery,Verified,https://s3.amazonaws.com/brewerydbapi/brewery/V79a57/upload_RZnvuW-icon.png,2006.0,38.9429975,-95.2810862,Lawrence,66047,Brewpub,N,3512 Clinton Parkway,Kansas,N,Y
26 Degree Brewing Company,Verified,https://s3.amazonaws.com/brewerydbapi/brewery/F7Flfn/upload_gduWaU-icon.png,,26.2312818,-80.0975418,Pompano Beach,,Micro Brewery,N,2600 E Atlantic Blvd.,Florida,N,Y
2C - Arte Cervejeira,Verified,https://s3.amazonaws.com/brewerydbapi/brewery/3k6A49/upload_9NEY4h-icon.png,,41.2696357,-8.0826488,Amarante,,Micro Brewery,N,,,N,N
2kids Brewing Company,Verified,https://s3.amazonaws.com/brewerydbapi/brewery/FkNXW1/upload_X7baLL-icon.png,2013.0,32.8966077,-117.1373279,San Diego,92126,Micro Brewery,N,8680 Miralani Dr.,California,N,Y
2nd Shift Brewing Co,Verified,https://s3.amazonaws.com/brewerydbapi/brewery/1ZnmlG/upload_GTiZFq-icon.png,,38.5435216,-91.1812857,New Haven,63068,Micro Brewery,N,101 Cedar Creek Rd,Missouri,N,Y
2nd Story Brewing Company,Verified,https://s3.amazonaws.com/brewerydbapi/brewery/vdEZ9j/upload_fq17DZ-icon.png,,39.9484739,-75.1435556,Philadelphia,19106,Brewpub,N,117 Chestnut St.,Pennsylvania,N,N
2SP Brewing Company,Verified,https://s3.amazonaws.com/brewerydbapi/brewery/VBusEz/upload_gKhoJB-icon.png,,39.8554651,-75.4036331,Aston,19014,Micro Brewery,N,120 Concord Rd.,Pennsylvania,N,N
3 Beards Beer Company,Verified,https://s3.amazonaws.com/brewerydbapi/brewery/Ya599O/upload_eZyZLE-icon.png,2010.0,42.2022941,-72.6046857,Holyoke,01532,Micro Brewery,N,189 W Main St,Massachusetts,N,Y
3 Daughters Brewing,Verified,https://s3.amazonaws.com/brewerydbapi/brewery/7i2zEQ/upload_sKYeVG-icon.png,,27.769051,-82.6627049,Saint Petersburg,33712,Micro Brewery,N,222 22nd Street South,Florida,N,Y
3 Freaks Brewery,Verified,https://s3.amazonaws.com/brewerydbapi/brewery/WFl75R/upload_uA3PJN-icon.png,,39.5649037,-104.9059419,Highlands Ranch,80126,Micro Brewery,N,7140 E County Line Rd,Colorado,N,Y
3 Guys and a Beer'd Brewing Company,Verified,https://s3.amazonaws.com/brewerydbapi/brewery/YMxo1d/upload_3GTpkk-icon.png,2012.0,41.5792865,-75.5015333,Carbondale,18407,Micro Brewery,N,10 Enterprise Drive,Pennsylvania,N,Y
3 Herons Brewing Company,Verified,https://s3.amazonaws.com/brewerydbapi/brewery/CVl8by/upload_L1jU7s-icon.png,,42.556589,-76.681616,Trumansburg,14886,Brewpub,Y,9632 Route 96,,N,Y
3 Iron Brewing Company,Verified,https://s3.amazonaws.com/brewerydbapi/brewery/orNo5d/upload_TsVxhz-icon.png,2013.0,34.0739016,-117.3136547,Colton,92324,Micro Brewery,N,898 South Vía Lata,California,N,Y
3 Keys Brewing,Verified,https://s3.amazonaws.com/brewerydbapi/brewery/PQZ8Qz/upload_t30GvK-icon.png,,27.496948,-82.532731,Bradenton,34208,Micro Brewery,N,2505 Manatee Ave E,Florida,N,Y
3 Nations Brewing Co.,Verified,https://s3.amazonaws.com/brewerydbapi/brewery/z9z8Z4/upload_RT3F8p-icon.png,,32.9310392,-96.8983269,Farmers Branch,,Micro Brewery,N,2405 Squire Pl,Texas,N,Y
3 Ravens Brewing,Verified,https://s3.amazonaws.com/brewerydbapi/brewery/ul5arW/upload_pYVFH1-icon.png,2003.0,-37.755777,145.026887,Thornbury,3071,Micro Brewery,N,1 Theobald Street,Victoria,N,Y
3 Sheeps Brewing Co,Verified,https://s3.amazonaws.com/brewerydbapi/brewery/Hw7H52/upload_QJdBdz-icon.png,2012.0,43.7593533,-87.7225872,Sheboygan,53081,Micro Brewery,N,1327 Huron Ave,Wisconsin,N,Y
3 Sons Brewing Co.,Verified,https://s3.amazonaws.com/brewerydbapi/brewery/rQyZpE/upload_Vv3vUr-icon.png,,26.052311,-80.1439343,Dania Beach,,Micro Brewery,N,,Florida,Y,Y
3 Stars Brewing Company,Verified,https://s3.amazonaws.com/brewerydbapi/brewery/ucVIMa/upload_HmxLCY-icon.png,2010.0,38.967491,-77.012626,Washington,20011,Micro Brewery,N,"6400 Chillum Place, NW",District of Columbia,N,Y
300 Suns Brewing,Verified,https://s3.amazonaws.com/brewerydbapi/brewery/x4vqAl/upload_gP2mer-icon.png,2014.0,40.1599013,-105.101233,Longmont,80501,Micro Brewery,N,335 1st Ave,Colorado,N,Y
303 Brewing Company,Verified,https://s3.amazonaws.com/brewerydbapi/brewery/9MrbND/upload_OjcPix-icon.png,,39.7392358,-104.990251,Denver,,Micro Brewery,Y,PO Box 202896,Colorado,N,Y
32 North Brewing Co.,Verified,https://s3.amazonaws.com/brewerydbapi/brewery/A6QHAU/upload_cG7vSA-icon.png,,32.8827827,-117.1648515,San Dieg,92121,Macro Brewery,N,8655 Production Ave,California,N,N
33 Acres Brewing Company,Verified,https://s3.amazonaws.com/brewerydbapi/brewery/DqlySI/upload_vOoLhx-icon.png,,49.2637804,-123.1053533,Vancouver,V5Y 1M8,Micro Brewery,N,15 West 8th Avenue,British Columbia,N,Y
350 Brewing Company,Verified,https://s3.amazonaws.com/brewerydbapi/brewery/W3pb09/upload_uohtEs-icon.png,2013.0,41.5593734,-87.7911748,Tinley Park,60477,Micro Brewery,N,7144 183rd St,Illinois,N,Y
38 State Brewing Company,Verified,https://s3.amazonaws.com/brewerydbapi/brewery/N101SS/upload_TZC2Gw-icon.png,2012.0,39.5689667,-104.9896149,Littleton,80122,Micro Brewery,N,8071 S Broadway,Colorado,N,Y
3Cross Brewing Company,Verified,https://s3.amazonaws.com/brewerydbapi/brewery/zZVmWp/upload_goiWzR-icon.png,2013.0,42.244075,-71.8304129,Worcester,01603,Micro Brewery,N,26 Cambridge Street,Massachusetts,N,Y
3docs BrewHouse,Verified,https://s3.amazonaws.com/brewerydbapi/brewery/AvxLqi/upload_TcX85x-icon.png,,32.5331548,-92.6649314,Ruston,71270,Micro Brewery,N,2550 West Alabama,Louisiana,N,Y
3rd Rock Brewing Company,Verified,https://s3.amazonaws.com/brewerydbapi/brewery/QwJfK8/upload_ehEQuo-icon.png,,35.0694273,-77.3675646,Trenton,28585,Micro Brewery,N,134 Industrial Park Drive,North Carolina,N,N
3rd Sign Brewery,Verified,https://s3.amazonaws.com/brewerydbapi/brewery/k8gU5c/upload_kDFl0W-icon.png,,43.1843974,-89.427576,Waunakee,53597,Micro Brewery,N,1131 Uniek Dr.,Wisconsin,N,Y
3rd Turn Brewing,Verified,,2015.0,38.193162,-85.566462,Louisville,40299,Micro Brewery,N,10408 Watterson Trail,Kentucky,N,Y
3rd Wave Brewing Co.,Verified,https://s3.amazonaws.com/brewerydbapi/brewery/9gBauy/upload_yPlKXc-icon.png,2012.0,38.4607682,-75.5743423,Delmar,19940,Micro Brewery,N,501 North Bi-State Blvd.,Delaware,N,Y
4 Brothers Blended Beer,Verified,https://s3.amazonaws.com/brewerydbapi/brewery/rAznrp/upload_e1L9AW-icon.png,2012.0,43.0517737,-88.1876181,Waukesha,53186,Micro Brewery,Y,W220 N1531 Jericho Ct,Wisconsin,N,Y
4 Hands Brewing Company,Verified,https://s3.amazonaws.com/brewerydbapi/brewery/eSpMPr/upload_GpDyau-icon.png,2011.0,38.6150105,-90.1976401,Saint Louis,63104,Micro Brewery,N,1220 S. 8th Street,Missouri,N,Y
4 Mile Brewing Co.,Verified,https://s3.amazonaws.com/brewerydbapi/brewery/GSkOGp/upload_XzTGhh-icon.png,,48.4526413,-123.4345587,Victoria,BC V9B 1G1,Micro Brewery,N,199 Island Highway,British Columbia,N,Y
4 Noses Brewing Company,Verified,https://s3.amazonaws.com/brewerydbapi/brewery/Ucc6jp/upload_Sts4Sn-icon.png,,39.9065692,-105.0984188,Broomfield,80021,Micro Brewery,N,8855 W. 116 Circle,Colorado,N,Y
4 Paws Brewing,Verified,https://s3.amazonaws.com/brewerydbapi/brewery/j4bzi7/upload_3IMAPo-icon.png,2011.0,41.8781136,-87.6297982,Chicago,,Micro Brewery,N,,Illinois,N,Y
4 Pines Brewing Company,Verified,https://s3.amazonaws.com/brewerydbapi/brewery/086VkE/upload_QRiiu2-icon.png,2008.0,-33.799478,151.285436,,2095,Micro Brewery,N,29/43-45 East Esplanade Manly,New South Wales,N,Y
4 Seasons Brewery,Verified,https://s3.amazonaws.com/brewerydbapi/brewery/UrP3el/upload_z6px5X-icon.png,2014.0,43.0541724,-83.3116716,Lapeer,48846,Micro Brewery,N,303 W. Nepessing St.,Michigan,Y,Y
40 Arpent Brewing Company,Verified,https://s3.amazonaws.com/brewerydbapi/brewery/O0JDg5/upload_ihppsC-icon.png,2012.0,29.9483973,-90.0083326,Arabi,70032,Micro Brewery,N,6809 North Peters St.,Louisiana,Y,Y
40 North Brewing,Verified,,2011.0,39.9991487,-105.2540857,Boulder,80303,Nano Brewery,N,675 30th St,Colorado,Y,Y
405 Brewing Co.,Verified,https://s3.amazonaws.com/brewerydbapi/brewery/FcVHIq/upload_v4ZwmW-icon.png,,35.2573645,-97.4681971,Norman,73069,Micro Brewery,N,1716 Topeka St,Oklahoma,N,Y
406 Brewing Company,Verified,https://s3.amazonaws.com/brewerydbapi/brewery/RLc3kq/upload_oJjI08-icon.png,2011.0,45.6929833,-111.0340753,Bozeman,59715,Micro Brewery,N,101 East Oak Street,Montana,N,Y
40FT Brewery,Verified,https://s3.amazonaws.com/brewerydbapi/brewery/dMpj1W/upload_yhNKB4-icon.png,2015.0,51.547129,-0.0745178,,E8 3DP,Micro Brewery,N,Bootyard Abbott Street,London,N,Y
41 Oaks Brewing,Verified,https://s3.amazonaws.com/brewerydbapi/brewery/cdkpyx/upload_328RBN-icon.png,,37.362565,-119.6424926,Oakhurst,93644,Micro Brewery,N,Highway 41,California,Y,Y
42 North Brewing Company,Verified,https://s3.amazonaws.com/brewerydbapi/brewery/HnlE79/upload_1Sn81G-icon.png,2015.0,42.7686418,-78.6079128,East Aurora,,Micro Brewery,N,25 Pine St.,New York,N,Y
450 North Brewing Company,Verified,https://s3.amazonaws.com/brewerydbapi/brewery/ExTe8O/upload_RJng8s-icon.png,,39.2679403,-85.8320778,Columbus,47203,Brewpub,N,8111 East 450 North,Indiana,N,Y
49th State Brewing Co,Verified,https://s3.amazonaws.com/brewerydbapi/brewery/k570yD/upload_R4astm-icon.png,2011.0,63.7948643,-148.4895979,Denali National Park,99755-0107,Brewpub,N,PO Box 107,Alaska,N,Y
4Chambers Brewing,Verified,https://s3.amazonaws.com/brewerydbapi/brewery/PXxbtS/upload_Tgq6ed-icon.png,,35.0907026,-80.6861799,Stallings,,Micro Brewery,N,,North Carolina,Y,N
4KD Crick Brewery,Verified,https://s3.amazonaws.com/brewerydbapi/brewery/qnqnz0/upload_NB63KZ-icon.png,2016.0,41.2931092,-84.3387212,Defiance,43512,Nano Brewery,N,211 Carpenter Rd,Ohio,N,Y
4th Street Brewing Co,Verified,https://s3.amazonaws.com/brewerydbapi/brewery/3Cwn6s/upload_3rSzIH-icon.png,,45.500503,-122.429975,Gresham,97080,Brewpub,Y,77 NE 4th Street,Oregon,N,Y
4th Tap Brewing Cooperative,Verified,https://s3.amazonaws.com/brewerydbapi/brewery/a9svue/upload_TmmM2Y-icon.png,,30.3851408,-97.7118457,Austin,78758,Micro Brewery,N,10615 Metric Blvd.,Texas,N,Y
4th Way Brewing Company,Verified,https://s3.amazonaws.com/brewerydbapi/brewery/YcEXhH/upload_JTQVOl-icon.png,2010.0,37.8715926,-122.272747,Berkeley,,Micro Brewery,N,,California,Y,Y
5 Lakes Brewing Co.,Verified,https://s3.amazonaws.com/brewerydbapi/brewery/b9uAQ2/upload_Oqcfea-icon.png,,42.7250347,-85.7072333,Dorr,49323,Micro Brewery,N,1638 142nd Ave.,Michigan,Y,N
5 Points Brewing Co,Verified,,,32.7422734,-117.184648,San Diego,92110,Micro Brewery,N,1795 Hancock Street,California,N,Y
5 Rabbit Cerveceria Inc,Verified,https://s3.amazonaws.com/brewerydbapi/brewery/GDFP48/upload_azuEXQ-icon.png,2011.0,41.9411513,-87.7431783,Chicago,60641,Micro Brewery,N,3304 North Knox Avenue,Illinois,N,Y
5 Rabbit Cerveceria Inc,Verified,https://s3.amazonaws.com/brewerydbapi/brewery/GDFP48/upload_azuEXQ-icon.png,2011.0,41.758,-87.779622,Bedford Park,60638,Micro Brewery,N,6398 W. 74th St.,Illinois,N,N
5 Seasons Brewing Company,Verified,https://s3.amazonaws.com/brewerydbapi/brewery/PprWrh/upload_2deKXR-icon.png,2001.0,33.9080529,-84.3807739,Sandy Springs,30342,Brewpub,N,5600 Roswell Road,Georgia,N,N
5 Seasons Brewing Company,Verified,https://s3.amazonaws.com/brewerydbapi/brewery/PprWrh/upload_2deKXR-icon.png,2001.0,34.0637856,-84.2528113,Alpharetta,30022,Brewpub,N,3655 Old Milton Pkwy,Georgia,N,N
5 Seasons Brewing Company,Verified,https://s3.amazonaws.com/brewerydbapi/brewery/PprWrh/upload_2deKXR-icon.png,2001.0,33.7789888,-84.4107935,Atlanta,30318,Brewpub,N,1000 Marietta St NW #204,Georgia,N,Y
5 Stones Artisan Brewery,Verified,https://s3.amazonaws.com/brewerydbapi/brewery/KuH7Gy/upload_cqBrPB-icon.png,2012.0,29.6295601,-98.2853566,Cibolo,78108,Nano Brewery,N,850 Schneider Dr.,Texas,N,Y
"5,0 Biervertriebs-GmbH",Verified,,,0.0,0.0,Braunschweig,38102,Office,N,Böcklerstraße 31,,N,Y
50 Back Brewing Co,Verified,https://s3.amazonaws.com/brewerydbapi/brewery/3zqgUV/upload_2zFIbI-icon.png,2010.0,42.673842,-71.5984083,Pepperell,01463-1182,Micro Brewery,N,5 Village Rd,Massachusetts,N,Y
508 Gastrobrewery,Verified,https://s3.amazonaws.com/brewerydbapi/brewery/vsz5a5/upload_Hn2epM-icon.png,,40.7257386,-74.0094031,New York,10013,Brewpub,Y,508 Greenwich Street,New York,N,Y
51 North Brewing Company,Verified,https://s3.amazonaws.com/brewerydbapi/brewery/lzuP4P/upload_ypF0Wg-icon.png,2013.0,42.785295,-83.240214,Lake Orion,48362,Micro Brewery,N,51 N Broadway St,Michigan,N,Y
515 Brewing Company,Verified,https://s3.amazonaws.com/brewerydbapi/brewery/rHCSHp/upload_NLtM7U-icon.png,,41.5999157,-93.7226797,Clive,50325,Micro Brewery,N,7700 University Ave,Iowa,N,Y
51st Ward Beer Company,Verified,https://s3.amazonaws.com/brewerydbapi/brewery/PLK3WP/upload_QSAte7-icon.png,2014.0,41.7958639,-87.9756175,Westmont,60559,Micro Brewery,N,,Illinois,N,Y
54°40' Brewing Company,Verified,https://s3.amazonaws.com/brewerydbapi/brewery/ERGYzv/upload_LYEZ1F-icon.png,2015.0,45.5648179,-122.3270721,Washougal,98671,Micro Brewery,N,3801 S Truman Rd,Washington,N,Y
56 Brewing,Verified,,,45.0255994,-93.2704323,Minneapolis,55418,Micro Brewery,N,3134 California St. NE,Minnesota,N,Y
57 Brew Pub & Bistro,Verified,https://s3.amazonaws.com/brewerydbapi/brewery/B7P5BI/upload_gbhw7M-icon.png,2012.0,43.1776718,-85.2727711,Greenville,48838-2190,Brewpub,N,1310 W Washington St,Michigan,N,Y
5th Street Brewpub,Verified,https://s3.amazonaws.com/brewerydbapi/brewery/PZOy9a/upload_ykuIYv-icon.png,2003.0,38.7067875,-93.2286339,Sedalia,65301,Brewpub,Y,500 S Ohio Ave,Missouri,N,Y
603 Brewery,Verified,https://s3.amazonaws.com/brewerydbapi/brewery/TavGRG/upload_lhMfch-icon.png,2012.0,42.9161384,-71.3629896,Londonderry,03053,Micro Brewery,N,12 Liberty Dr,New Hampshire,N,Y
612Brew,Verified,https://s3.amazonaws.com/brewerydbapi/brewery/QtDyxR/upload_UxeX4p-icon.png,2013.0,44.9990755,-93.2464998,Minneapolis,55413,Micro Brewery,N,945 Broadway St,Minnesota,N,Y
7 Cent Brewery,Verified,https://s3.amazonaws.com/brewerydbapi/brewery/yzjEGx/upload_Ca1NEt-icon.png,2012.0,-37.5409914,144.6158616,Gisborne South,3437,Micro Brewery,N,Couangalt Rd,Victoria,N,Y
7 Devils Brewing Co,Verified,https://s3.amazonaws.com/brewerydbapi/brewery/thFM14/upload_0MjStH-icon.png,2012.0,43.366566,-124.214647,Coos Bay,97420,Micro Brewery,N,247 S. 2nd St,Oregon,N,Y
7 Fjell Bryggeri,Verified,https://s3.amazonaws.com/brewerydbapi/brewery/8yWmRv/upload_RrSwKR-icon.png,2013.0,60.5634752,9.9877593,5155 Bønes,,Micro Brewery,N,Fjellsdalen 5,Norway,N,Y
7 Fjell Bryggeri,Verified,https://s3.amazonaws.com/brewerydbapi/brewery/8yWmRv/upload_RrSwKR-icon.png,2013.0,60.3291712,5.2900456,Bønes,5155,Micro Brewery,N,Fjellsdalen 5,Hordaland,N,Y
7 Hermits Brewing Company,Verified,https://s3.amazonaws.com/brewerydbapi/brewery/jG3j2h/upload_71BAfv-icon.png,2014.0,39.640104,-106.832202,Eagle,81631,Brewpub,N,717 Sylvan Lake Rd,Colorado,N,Y
7 Hills Brewing Company,Verified,https://s3.amazonaws.com/brewerydbapi/brewery/DNu6uB/upload_iDfXJt-icon.png,,37.533169,-77.431721,Richmond,23219,Micro Brewery,N,115 S. 15th St.,Virginia,N,Y
7 Locks Brewing Company,Verified,https://s3.amazonaws.com/brewerydbapi/brewery/UyJkMW/upload_WDAgG3-icon.png,,39.0558135,-77.110184,Rockville,20852,Nano Brewery,N,12227 Wilkins Ave,Maryland,N,Y
7 Mile Brewery,Verified,https://s3.amazonaws.com/brewerydbapi/brewery/H3EyoS/upload_CGXFBT-icon.png,,39.0206627,-74.8696726,Rio Grande,08242,Micro Brewery,N,3156 Route 9 South,New Jersey,N,Y
7 Seas Brewing Co,Verified,https://s3.amazonaws.com/brewerydbapi/brewery/7QsOEY/upload_DTO367-icon.png,2008.0,47.3272977,-122.5795175,Gig Harbor,98335-1226,Micro Brewery,N,3006 Judson St Ste 110,Washington,N,Y
7 Seas Brewing Co,Verified,https://s3.amazonaws.com/brewerydbapi/brewery/7QsOEY/upload_DTO367-icon.png,2008.0,47.241754,-122.438872,Tacoma,98402,Restaurant/Ale House,N,2101 Jefferson Ave,Washington,N,N
71 West Brewing Co,Verified,https://s3.amazonaws.com/brewerydbapi/brewery/lyEnHE/upload_R2T1VD-icon.png,,43.1978624,-70.8736698,Dover,03820,Micro Brewery,N,,New Hampshire,Y,Y
75th Street Brewery,Verified,https://s3.amazonaws.com/brewerydbapi/brewery/jkbCNz/upload_O9CJ0B-icon.png,1993.0,38.9926818,-94.5960652,Kansas City,64114,Brewpub,Y,520 W. 75th St.,Missouri,N,Y
77 Beer Co,Verified,,,40.7127837,-74.0059413,New York,,Micro Brewery,N,,New York,N,Y
7th Settlement Brewery,Verified,https://s3.amazonaws.com/brewerydbapi/brewery/KY5gtZ/upload_i1VQQ8-icon.png,2013.0,43.1951587,-70.873599,Dover,03820,Brewpub,N,47 Washington St,New Hampshire,N,Y
7venth Sun Brewing,Verified,https://s3.amazonaws.com/brewerydbapi/brewery/Cqkjwu/upload_MkKVe7-icon.png,2012.0,28.0162057,-82.7900486,Dunedin,34698,Micro Brewery,N,1012 Broadway,Florida,N,Y
7venth Sun Brewing,Verified,https://s3.amazonaws.com/brewerydbapi/brewery/Cqkjwu/upload_MkKVe7-icon.png,2012.0,28.00998,-82.450429,Tampa,33604,Micro Brewery,N,6809 N. Nebraska Ave.,Florida,Y,N
8 Sail Brewery,Verified,,2010.0,52.975675,-0.2945847,Heckington,NG34 9JW,Micro Brewery,N,Hale Road,Lincolnshire,N,Y
8 Wired Brewing Company,Verified,https://s3.amazonaws.com/brewerydbapi/brewery/ToWOJj/upload_ouL1tE-icon.png,2009.0,-41.5134425,173.9612498,Blenheim,7201,Micro Brewery,N,,,N,Y
8-bit Brewery,Verified,https://s3.amazonaws.com/brewerydbapi/brewery/7bqKoQ/upload_kabVx1-icon.png,2015.0,33.4535866,-112.3261431,Avondale,85323,Micro Brewery,N,1050 N Fairway Dr,Arizona,N,Y
81 Bay Brewing Co.,Verified,https://s3.amazonaws.com/brewerydbapi/brewery/0J4SK6/upload_jfFCfU-icon.png,,27.895798,-82.5203009,Tampa,33611,Micro Brewery,N,4465 W. Gandy Blvd.,Florida,Y,N
8bit Brewing Co.,Verified,https://s3.amazonaws.com/brewerydbapi/brewery/jsDvNV/upload_zz7SgB-icon.png,,33.5300976,-117.1765349,Murrieta,92562,Brewpub,N,"26755 Jefferson Avenue, Suite F",California,N,N
8one8 Brewing,Verified,,,34.2334042,-118.5885492,Canoga Park,91304,Micro Brewery,N,8951 De Soto Ave.,,N,Y
8th Street Ale Haus,Verified,,,43.7572587,-87.713291,Sheboygan,53081,Micro Brewery,N,1132 N 8th Street,Wisconsin,N,Y
8th Wonder Brewing Company,Verified,https://s3.amazonaws.com/brewerydbapi/brewery/1mv7t1/upload_yUvtwa-icon.png,,29.7490257,-95.3557612,Houston,77003,Micro Brewery,N,2202 Dallas St,Texas,N,Y
902 Brewing Company,Verified,https://s3.amazonaws.com/brewerydbapi/brewery/2KYHb0/upload_VGSUwQ-icon.png,2012.0,40.7475071,-74.0281614,Hoboken,07030,Micro Brewery,N,902 Washington St.,New Jersey,N,Y
903 Brewers,Verified,https://s3.amazonaws.com/brewerydbapi/brewery/y2ZQbD/upload_8jDik1-icon.png,2013.0,33.6171881,-96.607032,Sherman,75090,Micro Brewery,N,1718 S Elm St,Texas,N,Y
907 Brewing,Verified,,,55.47239,-131.817312,Ketchikan,99901,Micro Brewery,N,884 Mizzen Ln,Alaska,Y,Y
961 BEER,Verified,https://s3.amazonaws.com/brewerydbapi/brewery/SIlrQa/upload_IeFo6K-icon.png,2006.0,33.8886289,35.4954794,,,Micro Brewery,N,"Mallah Building, Industrial Zone",Beirut,N,Y
À l'abordage Microbrasserie,Verified,https://s3.amazonaws.com/brewerydbapi/brewery/98mgk2/upload_bhrmMR-icon.png,,45.1061583,-72.6149736,Sutton,J0E 2K0,Micro Brewery,N,10 Rue Principale Sud,Quebec,N,N
A l'abri de la Tempête,Verified,https://s3.amazonaws.com/brewerydbapi/brewery/RSWkSb/upload_jbG3sY-icon.png,,47.3486724,-61.9494939,L'Etang-du-Nord,G4T 3V5,Micro Brewery,N,286 Chemin Coulombe,Quebec,N,Y
À la Fût,Verified,https://s3.amazonaws.com/brewerydbapi/brewery/oKER8M/upload_vQkivj-icon.png,,46.7253365,-72.563644,Saint-Tite,G0X 3H0,Brewpub,N,"670, rue Notre-Dame",Quebec,N,Y
A Taste of Long Island Craft Brewery,Verified,https://s3.amazonaws.com/brewerydbapi/brewery/OHTofx/upload_nRf5VK-icon.png,2014.0,40.7340911,-73.445796,Farmingdale,,Micro Brewery,N,211-A Main St.,New York,N,Y
A. Fisher Brewing Co.,"New, Unverified",,,40.7519476,-111.9004518,Salt Lake City,84101,Micro Brewery,N,320 w. 800 s.,Utah,N,N
A. Le Coq,Verified,https://s3.amazonaws.com/brewerydbapi/brewery/3mFYc2/upload_7cBbiR-icon.png,1807.0,58.3776252,26.7290063,Tartu,,Micro Brewery,N,,Tartu,N,Y
A1A Ale Works,Verified,https://s3.amazonaws.com/brewerydbapi/brewery/8s5sUs/upload_3TtipL-icon.png,,35.05828,-85.277231,Chattanooga,37406,Micro Brewery,N,2001 Riverside Drive,Tennessee,N,N
A1A Ale Works,Verified,https://s3.amazonaws.com/brewerydbapi/brewery/8s5sUs/upload_3TtipL-icon.png,,29.8919786,-81.3111442,St. Augustine,32084,Brewpub,N,1 King Street,Florida,N,Y
Aachener Brauhaus Degraa,Verified,https://s3.amazonaws.com/brewerydbapi/brewery/tiuxoF/upload_qBvyte-icon.png,2007.0,50.8247238,6.0440697,Aachen,52072,Micro Brewery,N,Süsterfeldstr. 21,Rhineland-Pfalz,N,Y
Aalener Löwenbrauerei Gebr. Barth KG,Verified,,1668.0,48.83854,10.09852,Aalen,73431,Micro Brewery,N,Galgenbergstr. 8-10,Baden-Württemberg,N,Y
Aardwolf Brewing Company,Verified,https://s3.amazonaws.com/brewerydbapi/brewery/HqOPPk/upload_un3e7v-icon.png,2012.0,30.3108135,-81.6544618,Jacksonville,32207,Micro Brewery,N,1461 Hendricks Ave,Florida,N,Y
Aarhus Bryghus,Verified,https://s3.amazonaws.com/brewerydbapi/brewery/W2dlxg/upload_iPzVlk-icon.png,1986.0,56.1100811,10.1373933,Aarhus,86892040,Micro Brewery,N,Gunnar Clausens Vej 26,,N,Y
Aass Brewery,Verified,https://s3.amazonaws.com/brewerydbapi/brewery/TGtEbk/upload_rooKoF-icon.png,,59.7440738,10.2044564,Drammen,,Micro Brewery,N,Ole Steensgt. 10 Postboks 1530,,N,Y
Abandon Brewing,Verified,https://s3.amazonaws.com/brewerydbapi/brewery/BVG7Ls/upload_Q0UI0y-icon.png,2012.0,42.631829,-77.104915,Penn Yan,14527-8938,Micro Brewery,N,2994 Merritt Hill Rd,New York,N,Y
Abandoned Building Brewery,Verified,https://s3.amazonaws.com/brewerydbapi/brewery/qvj4CB/upload_lNt4kq-icon.png,,42.2741936,-72.6615712,Easthampton,01027,Micro Brewery,N,142 Pleasant Street,Massachusetts,N,Y
Abashiri Beer,Verified,https://s3.amazonaws.com/brewerydbapi/brewery/dleKhW/upload_DwFKLn-icon.png,2007.0,44.0217926,144.2628723,Abashiri,093-0012,Micro Brewery,N,4-1-2 Minami Nijo Nishi,Hokkaido,N,Y
Abbaye de Leffe,Verified,https://s3.amazonaws.com/brewerydbapi/brewery/5ac2lB/upload_X7j597-icon.png,1121.0,50.2604726,4.9127837,Dinant,,Micro Brewery,N,Dinant,Namur,N,Y
Abbaye de Maredsous,Verified,https://s3.amazonaws.com/brewerydbapi/brewery/huKquc/upload_iG8JDd-icon.png,1963.0,50.3439686,4.7468679,Dene,,Micro Brewery,N,"Rue de Maredsous, 11",Namur,N,Y
Abbaye Mont des Cats,Verified,https://s3.amazonaws.com/brewerydbapi/brewery/jMGNSh/upload_qWdJjf-icon.png,,50.7843301,2.6646075,Godewaersvelde,,Micro Brewery,N,2470 Route du Mont des Cats,,N,Y
Abbazia Tre Fontane,Verified,https://s3.amazonaws.com/brewerydbapi/brewery/e6sBZV/upload_R9Gk7i-icon.png,,41.9027835,12.4963655,"Roma, RM",,Micro Brewery,N,,,N,N
Abbey Ales Brewery,Verified,https://s3.amazonaws.com/brewerydbapi/brewery/usU4Jz/upload_cGgVnw-icon.png,1997.0,51.3895039,-2.3619152,,BA1 5LB,Micro Brewery,N,Camden Row,Bath,N,Y
Abbey Brewing Co,Verified,https://s3.amazonaws.com/brewerydbapi/brewery/sqIClK/upload_92aLkj-icon.png,1995.0,25.7890852,-80.1403462,Miami Beach,33139,Micro Brewery,N,1115 16th St,Florida,N,Y
"Abbey Brewing Company, LLC",Verified,https://s3.amazonaws.com/brewerydbapi/brewery/uA7DZB/upload_1vwXdn-icon.png,2005.0,36.3731341,-106.5112712,Abiquiu,87510-0270,Micro Brewery,N,1305 Forest Service Rd #151,New Mexico,N,Y
Abbey of the Holy Goats,Verified,https://s3.amazonaws.com/brewerydbapi/brewery/tK6M8F/upload_hISQjq-icon.png,,34.0475527,-84.3223232,Roswell,30076,Micro Brewery,N,4000 Northfield Way,Georgia,N,Y
Abbey Ridge,Verified,,,37.6267036,-89.3235602,Pomona,62975,Micro Brewery,N,23 Brewster Valley,Illinois,Y,Y
Abbey Wright Brewing Company,Verified,https://s3.amazonaws.com/brewerydbapi/brewery/wXmTDU/upload_fBM9bn-icon.png,2006.0,41.2225141,-77.0369203,Duboistown,17702,Brewpub,N,204 Valley Street,Pennsylvania,N,Y
Abbeydale Brewery,Verified,https://s3.amazonaws.com/brewerydbapi/brewery/1RvWY5/upload_qJfEGz-icon.png,,53.360461,-1.4772702,Sheffield,S8 0YX,Micro Brewery,N,"Unit 8, Aizlewood Road",,N,Y
Aberdeen Brewing,Verified,https://s3.amazonaws.com/brewerydbapi/brewery/YrVHMv/upload_8Mcqqc-icon.png,2000.0,41.439026,-87.1066031,Valparaiso,,Micro Brewery,Y,210 Aberdeen Dr.,Indiana,N,Y
Abide Brewing Co.,Verified,https://s3.amazonaws.com/brewerydbapi/brewery/VDaU2A/upload_IG85a1-icon.png,2013.0,33.4008072,-84.7634896,Newnan,30265,Micro Brewery,N,,Georgia,N,Y
Abigaile Brewery,Verified,https://s3.amazonaws.com/brewerydbapi/brewery/iEMsk8/upload_yvvfev-icon.png,2012.0,33.8632605,-118.3995379,Hermosa Beach,92054,Brewpub,N,1301 Manhattan Ave,California,N,Y
Abigale Brewing Co,Verified,https://s3.amazonaws.com/brewerydbapi/brewery/G5N8qx/upload_25Ivdz-icon.png,2010.0,51.1508811,0.8881392,Ashford,TN24 8DE,Micro Brewery,N,Unit 4 Javelin Enterprise Park,Kent,N,Y
Abita Brewing Company,Verified,https://s3.amazonaws.com/brewerydbapi/brewery/BBE5WM/upload_6HsKvN-icon.png,1986.0,30.4785257,-90.0375755,Abita Springs,70420,Office,N,PO Box 1510,Louisiana,N,N
Abita Brewing Company,Verified,https://s3.amazonaws.com/brewerydbapi/brewery/BBE5WM/upload_6HsKvN-icon.png,1986.0,30.482138,-90.055185,Covington,70433,Tasting Room,N,21084 Louisiana 36,Louisiana,N,N
Abita Brewing Company,Verified,https://s3.amazonaws.com/brewerydbapi/brewery/BBE5WM/upload_6HsKvN-icon.png,1986.0,30.4787911,-90.0392975,Abita Springs,70420,Brewpub,N,72011 Holly Street,Louisiana,N,Y
Able Ebenezer Brewing Co.,Verified,https://s3.amazonaws.com/brewerydbapi/brewery/hidaMN/upload_7d4c7E-icon.png,2013.0,42.8526218,-71.493268,Merrimack,03054,Micro Brewery,N,31 Columbia Circle,New Hampshire,N,Y
Able Seedhouse & Brewery,Verified,https://s3.amazonaws.com/brewerydbapi/brewery/83kcr7/upload_82wE8s-icon.png,,44.9989655,-93.2512103,Minneapolis,,Micro Brewery,N,1121 Quincy St. NE,Minnesota,N,N
Abnormal Beer Company,Verified,https://s3.amazonaws.com/brewerydbapi/brewery/i8sGbt/upload_0Inmwz-icon.png,,33.0227476,-117.1382404,San Diego,92127,Micro Brewery,N,"16990 Via Tazon, #123",Indiana,N,Y
ABQ Brew Pub,Verified,https://s3.amazonaws.com/brewerydbapi/brewery/noyvVJ/upload_IAKW63-icon.png,,35.1037698,-106.5707413,Albuquerque,87110,Brewpub,N,6601 Uptown Blvd NE,New Mexico,N,Y
Åbro Bryggeri,Verified,https://s3.amazonaws.com/brewerydbapi/brewery/QdxFHn/upload_2l9sQy-icon.png,1856.0,57.9802492,15.6394717,Vimmerby,,Micro Brewery,N,598 86,,N,Y
Absolution Brewing Company,Verified,https://s3.amazonaws.com/brewerydbapi/brewery/N8OUuv/upload_9Hefkb-icon.png,2013.0,33.8431414,-118.3378959,Torrance,90503,Micro Brewery,N,2878 Columbia St,California,N,Y
AC Golden Brewing Company,Verified,https://s3.amazonaws.com/brewerydbapi/brewery/M4K0XQ/upload_IV0QIp-icon.png,2007.0,39.755543,-105.2210997,Golden,80401,Micro Brewery,N,311 10th Street,Colorado,N,Y
Acadian Craft Brewing,Verified,,2011.0,29.9284093,-90.1327187,New Orleans,70118,Micro Brewery,N,7102 Camp St,Louisiana,Y,Y
Acadian Farms,Verified,https://s3.amazonaws.com/brewerydbapi/brewery/lgaPWe/upload_s0yBgk-icon.png,2008.0,45.7252547,-121.8205813,Carson,98610,Nano Brewery,Y,342 Carson Creek Rd.,Washington,N,Y
Accomplice Brewery & Ciderworks,Verified,https://s3.amazonaws.com/brewerydbapi/brewery/TkhNyf/upload_0fgSj1-icon.png,,26.7044149,-80.0787468,West Palm Beach,33409,Micro Brewery,N,1027 N Florida Mango Rd.,Florida,N,Y
Acelum,Verified,https://s3.amazonaws.com/brewerydbapi/brewery/zJX0ZQ/upload_0KvJxl-icon.png,,45.839055,11.8735183,Castelcucco,,Micro Brewery,N,"Via Col Muson, 9",,N,Y
Achel Brewery,Verified,https://s3.amazonaws.com/brewerydbapi/brewery/34MUbw/upload_mNb2fi-icon.png,1998.0,51.2989941,5.4892107,Achel,,Micro Brewery,N,De Kluis 1,Limburg,N,Y
Acidulous Brewing Company,Verified,,,40.0149856,-105.2705456,Boulder,,Micro Brewery,N,,Colorado,N,Y
Acorn Brewery of Barnsley,Verified,https://s3.amazonaws.com/brewerydbapi/brewery/Uiol9p/upload_dsHE9n-icon.png,2003.0,53.533179,-1.4123414,Wombwell,S73 8HA,Micro Brewery,N,Unit 3 Aldham Industrial Estate Mitchell Road,Barnsley,N,Y
Acoustic Ales Brewing Experiment,Verified,https://s3.amazonaws.com/brewerydbapi/brewery/t04KIj/upload_1MiIMP-icon.png,,32.7422734,-117.184648,San Diego,92110,Micro Brewery,N,1795 Hancock St.,California,N,Y
Acoustic Ales Brewing Experiment,Verified,https://s3.amazonaws.com/brewerydbapi/brewery/t04KIj/upload_1MiIMP-icon.png,,-11.9547757,-77.0629882,San Diego,92110,Micro Brewery,N,2120 W Washington St,California,N,N
Acoustic Draft Mead,Verified,https://s3.amazonaws.com/brewerydbapi/brewery/sP5x0O/upload_5u9APG-icon.png,,44.7586541,-85.8574357,Lake Ann,49650,Office,N,18905 Shumsky,Michigan,N,N
Acoustic Draft Mead,Verified,https://s3.amazonaws.com/brewerydbapi/brewery/sP5x0O/upload_5u9APG-icon.png,,44.7642449,-85.6329675,Traverse City,49684,Tasting Room,N,119 North Maple,Michigan,N,Y
ActualBrewery,Verified,,,0.0,0.0,,,Nano Brewery,N,,,N,Y
Ad Lib Brewing Company,Verified,https://s3.amazonaws.com/brewerydbapi/brewery/aJQnv0/upload_SZ6OBX-icon.png,2011.0,-43.5335225,172.57871,Christchurch,8041,Micro Brewery,N,12 Haslett Place,,N,Y
Addlestones,Verified,,,51.1902918,-2.536591,Somerset,BA4 5ND,Micro Brewery,N,Kilver Street,England,N,Y
Adelbert's Brewery,Verified,https://s3.amazonaws.com/brewerydbapi/brewery/7Tjp4C/upload_UUm4SE-icon.png,2011.0,30.382666,-97.720162,Austin,78758,Micro Brewery,N,2314 Rutland Drive,Texas,N,Y
Adirondack Pub & Brewery,Verified,https://s3.amazonaws.com/brewerydbapi/brewery/fToAQf/upload_VylDkR-icon.png,1999.0,43.418521,-73.714111,Lake George,12845-1603,Brewpub,N,33 Canada St,New York,N,Y
Adkin Brewery,Verified,,2000.0,51.5929691,-1.4263983,Wantage,OX129HW,Micro Brewery,N,52 Adkin Way,Oxfordshire,N,Y
Adler Bräu,Verified,,,49.97056,10.72152,,96188,Micro Brewery,N,Hauptstrasse 19 Stettfeld,Bavaria,N,Y
Adler-Brauerei Max Haag Nachf Wolfgang Haag,Verified,,,49.29761,8.92001,Waibstadt,74915,Micro Brewery,N,Hauptstr. 38,Baden-Württemberg,N,N
Adlerbrauerei Brehm,Verified,,,48.302873,9.900098,Dellmensingen,89155,Micro Brewery,N,Adlergasse 2,Baden-Wuerttemberg,N,Y
Adlerbrauerei Carl Schmetzer,Verified,,1716.0,0.0,0.0,Wallhausen-Michelbach,74599,Micro Brewery,N,Reubacher Straße 3,Baden-Württemberg,N,N
Adlerbrauerei Carl Schmetzer,Verified,,1716.0,48.761009,8.23147,,,Micro Brewery,N,,Baden-Württemberg,N,N
Adlerbrauerei Göggingen,Verified,,1349.0,48.0048707,9.1987688,Krauchenwies-Göggingen,72505,Micro Brewery,N,Kirchweg 2,Baden-Württemberg,N,N
Adlerbrauerei Herbert Werner,Verified,,,0.0,0.0,Zuzenhausen,74939,Brewpub,N,Hoffenheimer Straße 1,Baden-Württemberg,N,N
Adlerbrauerei J. Rupf,Verified,,1760.0,48.1400408,9.5358574,Duermentingen-Hailtingen,88525,Brewpub,N,Betzenweiler Strasse 15,Baden-Württemberg,N,Y
Adlerbrauerei Karl Götz,Verified,,1686.0,0.0,0.0,Geislingen-Altenstadt,73312,Micro Brewery,N,Stuttgarter Straße 214,Baden-Württemberg,N,N
Admiral Sasquatch,Verified,https://s3.amazonaws.com/brewerydbapi/brewery/GWZObt/upload_NyeNfq-icon.png,,41.7880876,-87.810334,Summit,,Micro Brewery,Y,,Illinois,Y,Y
Adnams Brewery,Verified,https://s3.amazonaws.com/brewerydbapi/brewery/nUwtfn/upload_uPMSXy-icon.png,1872.0,52.3271614,1.6806989,Southwold,IP18 6JW,Micro Brewery,N,East Green,Suffolk,N,Y
Adroit Theory Brewing Company,Verified,https://s3.amazonaws.com/brewerydbapi/brewery/Q8hjek/upload_9sMmZa-icon.png,2011.0,39.143902,-77.7201879,Purcellville,20132,Micro Brewery,N,404 Browning Ct.,Virginia,N,Y
Adventure Brewery,Verified,https://s3.amazonaws.com/brewerydbapi/brewery/owsQDs/upload_71xy0L-icon.png,2012.0,51.363583,-0.296254,Chessington,,Micro Brewery,N,,Surrey,N,Y
Adventure Brewery,Verified,https://s3.amazonaws.com/brewerydbapi/brewery/owsQDs/upload_71xy0L-icon.png,2012.0,38.279455,-77.447486,Fredericksburg,22408,Brewpub,N,3300 Dill Smith Dr.,Virginia,N,N
Adventure Brewing Company,Verified,https://s3.amazonaws.com/brewerydbapi/brewery/XuZjEE/upload_FRQXIY-icon.png,2013.0,38.384518,-77.440554,Fredericksburg,22405,Micro Brewery,N,33 Perchwood Dr. Unit 101,Virginia,N,Y
Adventure Brewing Company,Verified,https://s3.amazonaws.com/brewerydbapi/brewery/XuZjEE/upload_FRQXIY-icon.png,2013.0,38.279455,-77.447486,Fredericksburg,22408,Micro Brewery,N,3300 Dill Smith Dr.,Virginia,N,N
Aecht Schlenkerla,Verified,,,0.0,0.0,Bamberg,96049,Micro Brewery,N,Dominikanerstraße 6,Bayern,N,Y
Aeronaut Brewing Company,Verified,https://s3.amazonaws.com/brewerydbapi/brewery/zKipbt/upload_Pi2iNv-icon.png,,42.3817829,-71.1056689,Somerville,02143,Micro Brewery,N,14 Tyler St,Massachusetts,N,Y
AF Brew,Verified,https://s3.amazonaws.com/brewerydbapi/brewery/Bo6K8v/upload_fWO5Mu-icon.png,2012.0,59.9342802,30.3350986,St. Petersburg,,Micro Brewery,N,,,N,Y
Affligem Brewery,Verified,https://s3.amazonaws.com/brewerydbapi/brewery/QkdgSV/upload_cmWua5-icon.png,,50.9710395,4.1909792,Opwijk,,Micro Brewery,N,Ringlaan 18,Vlaams Brabant,N,Y
Aftershock Brewing Company,Verified,https://s3.amazonaws.com/brewerydbapi/brewery/SdHg0o/upload_qcqzMp-icon.png,2012.0,33.4882913,-117.1445094,Temecula,92590,Micro Brewery,N,28822 Old Town Front St,California,N,Y
Against The Grain Brewery,Verified,https://s3.amazonaws.com/brewerydbapi/brewery/BqFigo/upload_20qGL3-icon.png,2012.0,38.2555029,-85.7441124,Louisville,40202,Brewpub,N,401 East Main St.,Kentucky,N,Y
Agassiz Brewing Company,Verified,https://s3.amazonaws.com/brewerydbapi/brewery/28OVyf/upload_C85x1u-icon.png,1998.0,49.8997541,-97.1374937,Winnipeg,,Micro Brewery,Y,PO Box 42008,Manitoba,N,Y
Agner & Wolf Brewery Corp.,Verified,,2012.0,42.7766217,-71.5021472,Nashua,03063,Micro Brewery,N,4 Bud Way,New Hampshire,N,Y
Agrarian Ales,Verified,https://s3.amazonaws.com/brewerydbapi/brewery/OcxClb/upload_4zIjpG-icon.png,,44.1890125,-123.1250782,Eugene,97408,Micro Brewery,N,31115 West Crossroads Lane,Oregon,N,Y
Ahnapee Brewery,Verified,https://s3.amazonaws.com/brewerydbapi/brewery/yFgliy/upload_vAiLpQ-icon.png,2013.0,44.6090617,-87.4351322,Algoma,54201,Tasting Room,N,105 Navarino St,Wisconsin,N,Y
Aiken Brewing Company,Verified,,1997.0,33.5602757,-81.7226763,Aiken,29801,Micro Brewery,N,140 Laurens St SW,South Carolina,N,Y
Airdale Brewing Company,Verified,https://s3.amazonaws.com/brewerydbapi/brewery/eCqaSS/upload_Jcw0re-icon.png,2008.0,32.8794334,-117.1819082,San Diego,92121,Micro Brewery,Y,8385 Miramar Mall,California,N,Y
Airways Brewing Company,Verified,https://s3.amazonaws.com/brewerydbapi/brewery/1t7mJ1/upload_9JuhpP-icon.png,2010.0,47.4116716,-122.2248944,Kent,98031,Micro Brewery,N,8611 S 212th,Washington,N,Y
Airways Brewing Company,Verified,https://s3.amazonaws.com/brewerydbapi/brewery/1t7mJ1/upload_9JuhpP-icon.png,2010.0,47.3822049,-122.2355339,Kent,98032,Restaurant/Ale House,N,320 W Harrison,Washington,N,N
Ajax Aleworks,Verified,https://s3.amazonaws.com/brewerydbapi/brewery/2SQXoB/upload_L0vSz5-icon.png,,37.5407246,-77.4360481,Richmond,,Micro Brewery,N,,Virginia,Y,Y
Ajeper S.A.,Verified,,,-12.046374,-77.0427934,Santa María De Huachipa,,Micro Brewery,N,Avenida la Paz Lote 30,Lima,N,Y
Akasha Brewing Company,Verified,https://s3.amazonaws.com/brewerydbapi/brewery/tTARNt/upload_cPfxlP-icon.png,2015.0,-33.8696201,151.1182199,Five Dock,2046,Micro Brewery,N,10A Spencer Street,New South Wales,N,Y
Akasha Brewing Company,Verified,https://s3.amazonaws.com/brewerydbapi/brewery/ubXirA/upload_dwT78u-icon.png,,38.2531286,-85.7354133,Louisville,40206,Micro Brewery,N,909 E Market St,Kentucky,N,N
Akciový pivovar Letiny,Verified,https://s3.amazonaws.com/brewerydbapi/brewery/PZdDgd/upload_JdgEBj-icon.png,,49.5399603,13.4554201,Letiny,336 01,Micro Brewery,N,Letiny 66,,N,Y
Aksarben Brewing Company,Verified,,2006.0,41.2603558,-96.0894676,Omaha,68130,Micro Brewery,Y,11337 Davenport St.,Nebraska,N,Y
Aktienbrauerei Kaufbeuren,Verified,https://s3.amazonaws.com/brewerydbapi/brewery/Glq8HX/upload_pqtR3p-icon.png,,47.87814,10.61612,Kaufbeuren,,Micro Brewery,N,Hohe Buchleuthe 3,Bayern,N,Y
Alameda Brewing Company,Verified,https://s3.amazonaws.com/brewerydbapi/brewery/t5YwQy/upload_pSCmyX-icon.png,1996.0,45.5484823,-122.613645,Portland,97213,Brewpub,N,4765 NE Fremont St,Oregon,N,Y
Alameda Island Brewing Company,Verified,https://s3.amazonaws.com/brewerydbapi/brewery/orraqL/upload_IuzZMg-icon.png,2015.0,37.768443,-122.238863,Alameda,94501,Micro Brewery,N,1716 Park Street,California,N,Y
Alamo Beer Company,Verified,https://s3.amazonaws.com/brewerydbapi/brewery/uygijz/upload_bNE37K-icon.png,2002.0,29.453234,-98.478967,San Antonio,78212-3116,Micro Brewery,N,135 Magnolia Dr,Texas,N,Y
Alarmist Brewing,Verified,https://s3.amazonaws.com/brewerydbapi/brewery/RsHdxP/upload_JzW5x3-icon.png,2014.0,41.9894877,-87.730327,Chicago,60646,Micro Brewery,N,4055 W Peterson Ave,Illinois,N,Y
Alaskan Brewing Co.,Verified,https://s3.amazonaws.com/brewerydbapi/brewery/VPHkaP/upload_psVrqV-icon.png,1986.0,58.3570171,-134.4893459,Juneau,99801-9540,Micro Brewery,N,5429 Shaune Dr,Alaska,N,Y
Albani Bryggerierne,Verified,,1859.0,55.4098387,10.4033485,,5000,Micro Brewery,N,Tværgade 2,Odense,N,Y
Albia Brewing Co,Verified,,2012.0,41.0271308,-92.807795,Albia,52531,Brewpub,N,11 Benton Ave E,Iowa,N,N
Albquell Bräuhaus,Verified,,1851.0,48.30806,9.24551,,D-72818,Micro Brewery,N,Lindenplatz 6,Trochtelfingen,N,Y
Albrechtický pivovar,Verified,https://s3.amazonaws.com/brewerydbapi/brewery/x7JUFh/upload_lZEciI-icon.png,,49.85234,18.526179,Karviná,733 01,Micro Brewery,N,Lešetínská 366/14,,N,Y
Alcatraz Brewing Co,Verified,,,33.7848294,-117.8935314,Orange,92868,Brewpub,Y,20 City Blvd W,California,N,Y
Aldaris Brewery,Verified,https://s3.amazonaws.com/brewerydbapi/brewery/k2jMtH/upload_qPgdSS-icon.png,1865.0,57.0059247,24.1215215,Rga,,Micro Brewery,N,Tvaika iela 44,,N,Y
Aldus Brewing Co.,Verified,https://s3.amazonaws.com/brewerydbapi/brewery/31jJJL/upload_cORKtw-icon.png,2014.0,39.790598,-76.976899,Hanover,17331,Micro Brewery,N,555 Centennial Ave,Pennsylvania,N,Y
Ale Asylum,Verified,https://s3.amazonaws.com/brewerydbapi/brewery/MMSB2i/upload_XURlcY-icon.png,2006.0,43.1207344,-89.3537098,Madison,53704-4024,Micro Brewery,Y,2002 Pankratz St,Wisconsin,N,N
Ale Asylum,Verified,https://s3.amazonaws.com/brewerydbapi/brewery/MMSB2i/upload_XURlcY-icon.png,2006.0,43.1207344,-89.3537098,Madison,53704,Micro Brewery,N,2002 Pankratz St.,Wisconsin,N,Y
Ale House Brewing Company,Verified,https://s3.amazonaws.com/brewerydbapi/brewery/OJdDDq/upload_igxSgA-icon.png,,37.262089,-121.899725,San Jose,95118,Micro Brewery,N,4020 Colmery Ct,California,Y,Y
Ale India,Verified,,,38.9071923,-77.0368707,Washington,,Micro Brewery,N,,District of Columbia,Y,Y
Ale Industries,Verified,https://s3.amazonaws.com/brewerydbapi/brewery/gLF6R7/upload_cKyk8Y-icon.png,,37.7761647,-122.2282349,Oakland,94601,Micro Brewery,N,Industries 3096 E. 10th St.,California,N,Y
Ale Syndicate,Verified,https://s3.amazonaws.com/brewerydbapi/brewery/KAEeiz/upload_XC8I7P-icon.png,2012.0,41.931994,-87.6933002,Chicago,60647-1817,Micro Brewery,N,2601 W Diversey Ave,Illinois,N,Y
Ale-Mania,Verified,,,50.73743,7.0982068,Bonn,,Micro Brewery,N,,,N,Y
Aleman Brewpub,Verified,https://s3.amazonaws.com/brewerydbapi/brewery/JyJ8dh/upload_3pGnC4-icon.png,2013.0,41.9411513,-87.7431783,Chicago,60641,Micro Brewery,Y,3304 N Knox Ave,Illinois,Y,Y
Alementary Brewing Co.,Verified,,,40.904594,-74.040015,Hackensack,07601,Micro Brewery,N,58 Voorhis Ln.,New Jersey,N,Y
Alenda Weisse,Verified,https://s3.amazonaws.com/brewerydbapi/brewery/I0sZEu/upload_TpvTtG-icon.png,2010.0,0.0,0.0,,,Office,N,,,N,N
Alenda Weisse,Verified,https://s3.amazonaws.com/brewerydbapi/brewery/I0sZEu/upload_TpvTtG-icon.png,2010.0,0.0,0.0,,,Office,N,,,N,Y
AleSmith Brewing Company,Verified,https://s3.amazonaws.com/brewerydbapi/brewery/ygAzC9/upload_KpBT5m-icon.png,1995.0,32.8885761,-117.1494165,San Diego,92126-4311,Micro Brewery,N,9990 AleSmith Court,California,N,Y
Alewerks Brewing Company,Verified,https://s3.amazonaws.com/brewerydbapi/brewery/2ONHw4/upload_hL6sOG-icon.png,2006.0,37.321071,-76.7331616,Williamsburg,23188,Micro Brewery,N,189-B Ewell Road,Virginia,N,Y
Alexander Keith's,Verified,https://s3.amazonaws.com/brewerydbapi/brewery/5KrWKp/upload_nVRKB0-icon.png,1820.0,44.6436726,-63.5695422,Halifax,B3J 1R9,Micro Brewery,N,1496 Lower Water St,Nova Scotia,N,Y
Alexandria's Brewery,Verified,,2011.0,41.038087,-83.6486903,Findlay,45840,Micro Brewery,N,132 E. Crawford Street,Ohio,N,Y
Ali'i Brewing Company,Verified,https://s3.amazonaws.com/brewerydbapi/brewery/aztnLa/upload_OEP1EK-icon.png,1994.0,21.319617,-157.873126,Honolulu,97817,Micro Brewery,Y,500 Alakawa Street,Hawaii,N,Y
Alibi Ale Works,Verified,https://s3.amazonaws.com/brewerydbapi/brewery/xileIk/upload_C7oKJr-icon.png,2014.0,39.247445,-119.953499,Incline Village,89451,Restaurant/Ale House,N,204 E. Enterprise St.,Nevada,N,Y
Alien Brew Pub,Verified,https://s3.amazonaws.com/brewerydbapi/brewery/3xDVBu/upload_ExRpyW-icon.png,,35.104024,-106.571288,Albuquerque,87110,Brewpub,N,6601 Uptown Blvd,New Mexico,N,N
Alivarya,Verified,https://s3.amazonaws.com/brewerydbapi/brewery/bwZoGc/upload_LKxLas-icon.png,1864.0,53.9153853,27.5616918,Minsk,,Micro Brewery,N,"220002 ul. Kiseleva, 30",Minsk,N,Y
All Rise Brewing Co.,Verified,https://s3.amazonaws.com/brewerydbapi/brewery/avb0Fo/upload_vOVHbr-icon.png,,41.8863849,-87.6666826,Chicago,60607,Brewpub,N,235 N Ashland Ave,Illinois,N,N
All Saints Brewing Company,Verified,https://s3.amazonaws.com/brewerydbapi/brewery/4ap3mq/upload_pNHxdg-icon.png,2011.0,40.3117912,-79.5258589,Greensburg,15601-7317,Micro Brewery,N,1602 State Route 119,Pennsylvania,N,Y
Allagash Brewing Company,Verified,https://s3.amazonaws.com/brewerydbapi/brewery/pdLPeS/upload_1MDITb-icon.png,1995.0,43.703215,-70.317677,Portland,04103,Micro Brewery,N,50 Industrial Way,Maine,N,Y
Allegheny City Brewing,Verified,https://s3.amazonaws.com/brewerydbapi/brewery/YNfqJO/upload_eA3EEq-icon.png,2015.0,40.454191,-80.000442,Pittsburgh,15212,Micro Brewery,N,507 Foreland Street,Pennsylvania,Y,Y
Allen's Landing Brewing,Verified,,,29.7604267,-95.3698028,Houston,,Micro Brewery,N,,Texas,Y,Y
Alley Kat Brewing Company,Verified,https://s3.amazonaws.com/brewerydbapi/brewery/kPcpYR/upload_N9evOr-icon.png,1994.0,53.495389,-113.487933,Edmonton,T6E 0C7,Micro Brewery,N,9929 60 Ave. NW,Alberta,N,Y
Allgäuer Brauhaus AG Kempten,Verified,,1394.0,0.0,0.0,Kempten,D-87435,Micro Brewery,N,Beethovenstraße 7,Bayern,N,Y
Alliance Brewing Company,Verified,https://s3.amazonaws.com/brewerydbapi/brewery/GfrjOa/upload_0lIQpI-icon.png,,35.959605,-83.903032,Knoxville,37920,Micro Brewery,N,1130 Sevier Ave,Tennesssee,N,N
Alligator Brewing,Verified,,2007.0,29.650496,-82.324556,Gainesville,32601,Nano Brewery,N,10 SE 2nd Ave,Florida,Y,Y
Alltech Lexington Brewing and Distilling Company,Verified,https://s3.amazonaws.com/brewerydbapi/brewery/IuEeGC/upload_Krh6Sc-icon.png,1999.0,38.049863,-84.5095709,Lexington,40508,Micro Brewery,N,401 Cross Street,Kentucky,N,Y
Alluvial Brewing Company,Verified,,2015.0,42.0779224,-93.6689248,Ames,50014,Micro Brewery,N,3715 West 190th St.,Iowa,N,N
Alma Brewing Company,Verified,https://s3.amazonaws.com/brewerydbapi/brewery/et42fN/upload_A77vLj-icon.png,,43.3789237,-84.6597814,Alma,48801,Brewpub,N,208 East Superior Street,Michigan,N,N
Almanac Beer Co,Verified,https://s3.amazonaws.com/brewerydbapi/brewery/0dM1NH/upload_6G0xRm-icon.png,2010.0,37.760272,-122.3880977,San Francisco,94107,Micro Brewery,N,2325 3rd Street,California,N,Y
Almar Orchards,Verified,,1885.0,43.0273646,-83.9113451,Flushing,48433,Cidery,N,1431 Duffield Rd,Michigan,N,N
Aloha Beer Company,Verified,https://s3.amazonaws.com/brewerydbapi/brewery/cx4pWi/upload_8z8BWB-icon.png,2012.0,21.3135776,-157.8696224,Honolulu,96817,Micro Brewery,Y,580 N. Nimitz Highway,Hawaii,N,Y
Alosta Brewing Co.,Verified,https://s3.amazonaws.com/brewerydbapi/brewery/FGndg9/upload_ddgdtV-icon.png,2013.0,34.1045294,-117.8788896,Covina,91722,Micro Brewery,N,692 Arrow Grand Cir,California,N,Y
Alpha Acid Brewing Company,Verified,https://s3.amazonaws.com/brewerydbapi/brewery/wevPSI/upload_gUsI5Y-icon.png,,37.5202145,-122.2758008,Belmont,94002,Micro Brewery,N,121 Industrial Rd,California,N,Y
Alpha Acid Brewing Company,Verified,https://s3.amazonaws.com/brewerydbapi/brewery/wevPSI/upload_gUsI5Y-icon.png,,37.5212333,-122.2656069,Belmont,,,N,121 Industrial Rd,CA,N,N
Alpha Brewing Co,Verified,https://s3.amazonaws.com/brewerydbapi/brewery/jWWHko/upload_ZojEuS-icon.png,2013.0,38.6327356,-90.1998977,St. Louis,63101,Micro Brewery,N,1409 Washington Ave,Missouri,N,Y
Alphabet City Brewing Company,Verified,https://s3.amazonaws.com/brewerydbapi/brewery/wlbqd0/upload_JGKgab-icon.png,2012.0,40.7236044,-73.9788462,East Village,10009,Micro Brewery,N,96 Avenue C,New York,N,Y
Alpine Beer Company,Verified,https://s3.amazonaws.com/brewerydbapi/brewery/vDxSPd/upload_xSpAaB-icon.png,2002.0,32.8351688,-116.7626655,Alpine,91901,Micro Brewery,N,2351 Alpine Boulevard,California,N,Y
Alpine Brewing Co,Verified,https://s3.amazonaws.com/brewerydbapi/brewery/uTRD6w/upload_lVzDWQ-icon.png,2000.0,48.939025,-119.43674,Oroville,98844,Micro Brewery,N,821 14th Ave,Washington,N,Y
Alpine Dog Brewing Company,Verified,https://s3.amazonaws.com/brewerydbapi/brewery/raWRpa/upload_v7U8mF-icon.png,2011.0,39.7401282,-104.9748385,Denver,80218,Micro Brewery,N,1505 Ogden Street,Colorado,N,Y
Alpine Dog Brewing Company,Verified,https://s3.amazonaws.com/brewerydbapi/brewery/raWRpa/upload_v7U8mF-icon.png,2011.0,39.7401282,-104.9748382,denver,80218,Micro Brewery,N,1505 ogden st,co,N,N
Alpirsbacher Klosterbräu,Verified,https://s3.amazonaws.com/brewerydbapi/brewery/XXgGZ4/upload_HrLPwa-icon.png,1877.0,48.34566,8.40305,Alpirsbach,,Micro Brewery,N,Marktplatz 1,Baden-Wrttemberg,N,Y
Alsfelder Brauerei AG,Verified,,,0.0,0.0,,36304,Micro Brewery,N,Grünberger Straße 68,Alsfeld,N,Y
Alt Brew,Verified,,,43.0667561,-89.3053014,Madison,53718,Micro Brewery,N,4539 Helgesen Dr.,Wisconsin,N,Y
Alt Oberurseler Brauhaus,Verified,,1994.0,50.20299,8.57909,Oberursel,61440,Micro Brewery,N,Ackergasse 13,Hesse,N,N
Alt-Gießen Gasthausbrauerei,Verified,,1991.0,0.0,0.0,Gießen,D-35390,Micro Brewery,N,Westanlage 30-32,Hessen,N,N
Altamont Beer Works,Verified,https://s3.amazonaws.com/brewerydbapi/brewery/TuFFz1/upload_lzfYEZ-icon.png,,37.6762801,-121.7198844,Livermore,94550,Micro Brewery,N,2402 Research Drive,California,N,Y
Altamont Brewing Company,Verified,https://s3.amazonaws.com/brewerydbapi/brewery/l14zbU/upload_GdWaLt-icon.png,2011.0,35.581536,-82.604315,Asheville,28806,Micro Brewery,N,1042 Haywood Rd,North Carolina,Y,Y
Alte Ölmühle,Verified,https://s3.amazonaws.com/brewerydbapi/brewery/6gM8vr/upload_3LWyud-icon.png,2009.0,0.0,0.0,,D-19322,Brewpub,N,Bad Wilsnacker Straße 52,Wittenberge,N,Y
Altenauer Brauerei,Verified,,1617.0,48.34566,8.40305,Alpirsbach,72275,Micro Brewery,N,Marktplatz 1,Niedersachsen,N,N
Altenburger Brauerei,Verified,,1871.0,0.0,0.0,Altenburg,04600,Micro Brewery,N,Brauereistraße 20,Thuringia,N,Y
Altenmünster Brauer Bier GmbH,Verified,,,47.74866,10.56937,Marktoberdorf-Leuterschach,87616,Micro Brewery,N,Schwendenerstrasse 18,,N,Y
Altenrüthener Hausbrauerei,Verified,,1994.0,0.0,0.0,Altenrüthen Rüthen,D-59602,Micro Brewery,N,Altenrüthener Straße 7,Nordrhein-Westfalen,N,N
Alter Brewing Company,Verified,https://s3.amazonaws.com/brewerydbapi/brewery/BpI9BO/upload_6muPPj-icon.png,2015.0,41.7908029,-88.040617,Downers Grove,60515,Micro Brewery,N,2300 Wisconsin Ave.,Illinois,N,N
Alter Dessauer,Verified,,2001.0,51.83544,12.24598,Dessau,06844,Brewpub,N,Lange Gasse 16,Saxony-Anhalt,N,Y
Altes Brauhaus zu Fallersleben,Verified,,1765.0,0.0,0.0,Wolfsburg-Fallersleben,D-38442,Micro Brewery,N,Schloßplatz 4,Niedersachsen,N,N
Altitude Chophouse & Brewery,Verified,,1999.0,41.3103382,-105.595231,Laramie,82070,Brewpub,N,320 South 2nd St.,Wyoming,N,Y
Altos Las Hormigas Winery,Verified,https://s3.amazonaws.com/brewerydbapi/brewery/53RO7I/upload_hJcuu5-icon.png,1995.0,0.0,0.0,La Legua,,Micro Brewery,N,5585 Luján de Cuyo,Argentina,N,Y
Altstadtbrauerei Marienbräu,Verified,,2009.0,0.0,0.0,Jever,26441,Micro Brewery,N,Apothekerstraße 1,Lower Saxony,N,N
Altstadtbrauhaus zum Stadtkrug,Verified,,1936.0,0.0,0.0,Schwerin,19053,Brewpub,N,Wismarsche Straße 126,Mecklenburg-Vorpommern,N,Y
Alvarado Street Brewery & Grill,Verified,https://s3.amazonaws.com/brewerydbapi/brewery/g2d9B7/upload_4m0QrV-icon.png,2014.0,36.5993098,-121.8948394,Monterey,93940,Micro Brewery,N,426 Alvarado St,California,N,N
Alvinne Picobrouwerij,Verified,https://s3.amazonaws.com/brewerydbapi/brewery/9rP4iV/upload_IOu7C7-icon.png,,50.919024,3.2628725,Ingelmunster,,Micro Brewery,N,Oostrozebekestraat 114,West-Vlaanderen,N,Y
Alzeyer Volker Bräu,Verified,,2006.0,49.744882,8.108906,,55232,Micro Brewery,N,Hospitalstr. 50,Alzey,N,Y
Amadeus,Verified,,,0.0,0.0,,,Micro Brewery,N,Komenského 66,Šurany,N,N
Amador Brewing Company,Verified,,,38.482348,-120.843439,Plymouth,95669,Micro Brewery,N,9659 Main Street,California,N,Y
Amager Bryghus,Verified,https://s3.amazonaws.com/brewerydbapi/brewery/LOKnrY/upload_4EzywV-icon.png,,55.624252,12.595661,,2770,Micro Brewery,N,Fuglebækvej 2 C,Kastrup,N,Y
Amalgamated Brewing Company,Verified,https://s3.amazonaws.com/brewerydbapi/brewery/jnSdDd/upload_Msakky-icon.png,2006.0,38.5923841,-90.2181681,Saint Louis,63118,Brewpub,Y,1821 Cherokee Street,Missouri,N,Y
Ambacht Brewing,Verified,https://s3.amazonaws.com/brewerydbapi/brewery/ro7Zi3/upload_YS66Ig-icon.png,2008.0,0.0,0.0,Hillsboro,97124,Micro Brewery,N,1060 NE 25th Ave‎,Oregon,N,Y
AmBev,Verified,https://s3.amazonaws.com/brewerydbapi/brewery/6xWjvj/upload_Gr7ISI-icon.png,1999.0,-23.306318,-51.1776795,Cornelio,86300-000,Production Facility,N,Avenida Dom Pedro I,Procopio,N,Y
America's Brewing Company,Verified,https://s3.amazonaws.com/brewerydbapi/brewery/mB7srw/upload_Sx3X6Z-icon.png,1996.0,41.760709,-88.309777,Aurora,60505,Micro Brewery,Y,205 North Broadway,Illinois,N,Y
American Badass Beer Company,Verified,,,42.331427,-83.0457538,Detroit,,Production Facility,N,,Michigan,N,Y
American Brewing Company,Verified,https://s3.amazonaws.com/brewerydbapi/brewery/M7BRN4/upload_3C620b-icon.png,2011.0,47.8040624,-122.3735496,Edmonds,98020,Micro Brewery,N,180 W. Dayton St.,Washington,N,Y
American Dream Brewing,Verified,https://s3.amazonaws.com/brewerydbapi/brewery/yQuFWV/upload_dxhr6L-icon.png,2012.0,34.1954436,-118.8716215,Thousand Oaks,91360,Micro Brewery,N,1336 N Moorpark Rd,California,N,Y
American Honor Ale House and Brewery,Verified,https://s3.amazonaws.com/brewerydbapi/brewery/dXZQ4L/upload_qj9DoE-icon.png,,35.735385,-81.325686,Hickory,28602,Micro Brewery,N,883 Highland Avenue SE,North Carolina,N,N
American Honor Beer Company,Verified,https://s3.amazonaws.com/brewerydbapi/brewery/8nYps3/upload_9Kl3pD-icon.png,2010.0,41.2551787,-75.8577837,Wilkes-Barre,18705,Micro Brewery,N,700 N Pennsylvania Avenue,Pennsylvania,N,Y
American River Brewing,Verified,,1993.0,38.9040439,-121.0656216,Auburn,95603,Micro Brewery,Y,100 Borland Avenue,California,N,Y
American River Brewing Company,Verified,https://s3.amazonaws.com/brewerydbapi/brewery/akd3fw/upload_rZFbXx-icon.png,2010.0,38.602932,-121.270972,Rancho Cordova,95670,Micro Brewery,N,"11151 Trade Center Drive ,",California,N,Y
American Sky Brewing Co.,Verified,https://s3.amazonaws.com/brewerydbapi/brewery/6Dy48S/upload_sqIjcO-icon.png,2011.0,44.9552888,-92.7386322,Hudson,54016-9287,Micro Brewery,Y,1510 Swasey Rd,Wisconsin,N,Y
American Vintage Beverage Inc,Verified,https://s3.amazonaws.com/brewerydbapi/brewery/xCKJdE/upload_nWN0MW-icon.png,2010.0,47.6084921,-122.336407,Seattle,98101,Office,N,,Washington,N,Y
Amerisports Brew Pub,Verified,,1997.0,39.1551041,-94.4820108,Kansas City,64161,Micro Brewery,N,8201 NE Birmingham Road,Missouri,N,Y
AMF Keglers Lanes and Brewery,Verified,,,38.092317,-78.470288,Charlottesville,22906,Brewpub,Y,2000 Seminole Tr,Virginia,N,Y
Amherst Brewing Company,Verified,https://s3.amazonaws.com/brewerydbapi/brewery/d8IJKF/upload_YkT7vZ-icon.png,1997.0,42.3763254,-72.5198934,Amherst,01002,Micro Brewery,N,24 North Pleasant Street,Massachusetts,N,Y
"Amicas Pizza, Microbrews and More",Verified,https://s3.amazonaws.com/brewerydbapi/brewery/FS17Tg/upload_ZwEDGc-icon.png,2002.0,38.535016,-105.991877,Salida,81201,Micro Brewery,N,136 East Second Street,Colorado,N,Y
Amnésia Brewery,Verified,https://s3.amazonaws.com/brewerydbapi/brewery/eVD0Un/upload_JSOWOB-icon.png,2014.0,38.6968607,-9.3146014,Oeiras,,Nano Brewery,N,,Lisbon,N,Y
Amnesia Brewing,Verified,,,45.5494277,-122.6751446,Portland,97227,Micro Brewery,Y,832 N Beech St,Oregon,N,Y
Amnesia Brewing,Verified,,,45.578277,-122.351972,Washougal,98671,Micro Brewery,N,1834 Main St.,Washington,N,N
Amplified Ale Works,Verified,https://s3.amazonaws.com/brewerydbapi/brewery/7jib1b/upload_fmiUaI-icon.png,2012.0,32.7913197,-117.2544418,San Diego,92109,Micro Brewery,N,4150 MiSSion Blvd,California,N,Y
Amplified Ale Works,Verified,https://s3.amazonaws.com/brewerydbapi/brewery/7jib1b/upload_fmiUaI-icon.png,2012.0,32.886637,-117.1571477,San Diego,92121,Micro Brewery,N,9030 Kenamar Dr.,California,N,N
Amstel Brewery,Verified,https://s3.amazonaws.com/brewerydbapi/brewery/rljvd7/upload_8tBDwA-icon.png,1870.0,52.373095,4.893305,Amsterdam,,Micro Brewery,N,Antwoordnummer 7181,Amsterdam,N,Y
Amsterdam Brewing Company,Verified,https://s3.amazonaws.com/brewerydbapi/brewery/dtWauh/upload_8V0Qcq-icon.png,1986.0,43.6386872,-79.4003535,Toronto,M5V 2N6,Micro Brewery,N,21 Bathurst St.,Ontario,N,N
Amsterdam Brewing Company,Verified,https://s3.amazonaws.com/brewerydbapi/brewery/dtWauh/upload_8V0Qcq-icon.png,1986.0,43.7069098,-79.3569022,Toronto,M4G 4C5,Production Facility,N,45 Esandar Dr,Ontario,N,Y
Anacapa Brewing Co,Verified,,,34.2807228,-119.2936025,Ventura,93001,Brewpub,N,472 East Main Street,California,N,Y
Anacortes Brewery,Verified,https://s3.amazonaws.com/brewerydbapi/brewery/U5SjmY/upload_PAx7Kc-icon.png,1994.0,48.51933,-122.6125703,Anacortes,98221,Micro Brewery,N,320 Commercial Avenue,Washington,N,Y
Anadolu Efes Brewery,Verified,,,0.0,0.0,,34603,Micro Brewery,N,Bahüelievler-Haznedar,Istanbul,N,Y
Anaheim Brewery,Verified,https://s3.amazonaws.com/brewerydbapi/brewery/JRrnyB/upload_HpjVmE-icon.png,1870.0,33.8327369,-117.9124534,Anaheim,92805,Micro Brewery,N,336 South Anaheim Boulevard,California,N,Y
Anchor Brewing Company,Verified,https://s3.amazonaws.com/brewerydbapi/brewery/6PBXvz/upload_HwOGTW-icon.png,1896.0,37.7634514,-122.4007543,San Francisco,94107,Micro Brewery,N,1705 Mariposa St,California,N,Y
Anchorage Brewing Company,Verified,https://s3.amazonaws.com/brewerydbapi/brewery/41WIHg/upload_ByqO3Y-icon.png,,61.138793,-149.8821545,Anchorage,99515,Micro Brewery,N,148 W 91st Ave,Alaska,N,Y
Ancient City Brewing,Verified,,,29.9122923,-81.4156757,St. Augustine,32092,Production Facility,N,3420 Agricultural Center Dr.,Florida,N,N
Ancient Lakes Brewing Company,Verified,https://s3.amazonaws.com/brewerydbapi/brewery/zRPGmb/upload_XIYGWM-icon.png,2010.0,47.2516104,-119.9464129,Quincy,98848,Micro Brewery,Y,21547 Road 11.2 NW,Washington,N,Y
"Andean Brewing Company, Inc.",Verified,https://s3.amazonaws.com/brewerydbapi/brewery/nuhnAb/upload_68C8sY-icon.png,2010.0,41.079567,-73.954171,Blauvelt,10913,Micro Brewery,N,300 Corporate Drive,New York,N,Y
Andechser Klosterbrauerei,Verified,https://s3.amazonaws.com/brewerydbapi/brewery/iiuM5Q/upload_PxUXxx-icon.png,1455.0,47.97745,11.18499,Andechs,,Micro Brewery,N,Bergstrae 2,Bayern,N,Y
Anderson Valley Brewing Company,Verified,https://s3.amazonaws.com/brewerydbapi/brewery/L2dAEr/upload_AbL17d-icon.png,1987.0,39.001384,-123.356081,Boonville,95415,Micro Brewery,N,17700 Boonville Rd,California,N,Y
Andreas Klosterbrauerei Eschwege,Verified,,1839.0,51.184907,10.055479,,37269,Micro Brewery,N,Klosterstraße 1,Eschwege,N,Y
Andrew's Brewing Company,Verified,,1992.0,44.3139494,-69.1336523,Lincolnville,04849,Micro Brewery,N,353 High St,Maine,N,Y
Andrews Brewing Company,Verified,https://s3.amazonaws.com/brewerydbapi/brewery/SYkdNz/upload_4nEamV-icon.png,2013.0,35.199271,-83.812814,Andrews,28901,Nano Brewery,N,565 Aquone Road,North Carolina,N,Y
Andwells Brewery,Verified,https://s3.amazonaws.com/brewerydbapi/brewery/XCCsTQ/upload_KTejv9-icon.png,2008.0,51.268524,-1.013585,Hook,RG27 9PA,Micro Brewery,N,Andwell,Hampshire,N,Y
Angel City Brewing,Verified,https://s3.amazonaws.com/brewerydbapi/brewery/0ZIlVA/upload_q87thj-icon.png,1997.0,34.0466054,-118.2378181,Los Angeles,90013,Micro Brewery,N,216 S Alameda St,California,N,Y
Angela's Pizzeria and Brewery,Verified,,,42.185396,-73.986528,Catskill,12414,Micro Brewery,N,4545 NY 32,New York,N,N
Angelic Brewing,Verified,,1995.0,43.0740322,-89.39127,Madison,53703,Micro Brewery,Y,322 West Johnson Street,Wisconsin,N,Y
Angry Buffalo Brewing Company,Verified,,,42.8435149,-106.279692,Casper,82609,Office,N,3550 Big Horn St.,Wyoming,Y,N
Angry Cedar Brewing Co,Verified,https://s3.amazonaws.com/brewerydbapi/brewery/ct1Zeb/upload_mDokok-icon.png,2008.0,42.726057,-92.467398,Waverly,50677,Micro Brewery,N,215 E Bremer Ave,Iowa,N,Y
Angry Chair Brewing,Verified,https://s3.amazonaws.com/brewerydbapi/brewery/VCOezh/upload_tvzrYh-icon.png,2014.0,28.005142,-82.459215,Tampa,33604,Micro Brewery,N,6401 N Florida Ave,Florida,N,Y
Angry Erik Brewing,Verified,,,41.09372,-74.7168499,Lafayette,07848,Micro Brewery,N,10 Millpond Drive,New Jersey,N,Y
Angry Hank's Microbrewery,Verified,https://s3.amazonaws.com/brewerydbapi/brewery/FCkNo2/upload_Je3znp-icon.png,,45.784443,-108.501145,Billings,59101,Micro Brewery,N,2405 1st Ave N,Montana,N,Y
Angry Inch Brewing,Verified,https://s3.amazonaws.com/brewerydbapi/brewery/7GqjTU/upload_QKq0OT-icon.png,2015.0,44.6476464,-93.2428391,Lakeville,55044,Micro Brewery,N,20841 Holyoke Ave.,Minnesota,N,Y
Angry Orchard,Verified,https://s3.amazonaws.com/brewerydbapi/brewery/tYf3W8/upload_G5touV-icon.png,2011.0,39.1031182,-84.5120196,Cincinnati,,Micro Brewery,N,,Ohio,N,Y
Angry Orchard,Verified,https://s3.amazonaws.com/brewerydbapi/brewery/tYf3W8/upload_G5touV-icon.png,2011.0,41.587128,-74.221692,Walden,12586,Cidery,N,2241 Albany Post Road,New York,N,N
Anheuser-Busch InBev,Verified,https://s3.amazonaws.com/brewerydbapi/brewery/BznahA/upload_0FkKKl-icon.png,1852.0,38.5985037,-90.2093428,Saint Louis,63118,Macro Brewery,N,One Busch Place,Missouri,N,Y
Anheuser-Busch InBev,Verified,https://s3.amazonaws.com/brewerydbapi/brewery/BznahA/upload_0FkKKl-icon.png,1852.0,40.6169416,-105.0018273,Fort Collins,80524,Production Facility,N,2351 Busch Dr,Colorado,N,N
Anheuser-Busch InBev,Verified,https://s3.amazonaws.com/brewerydbapi/brewery/BznahA/upload_0FkKKl-icon.png,1852.0,34.2210112,-118.4768522,Van Nuys,91406,Production Facility,N,15800 Roscoe Blvd,California,N,N
Anheuser-Busch InBev,Verified,https://s3.amazonaws.com/brewerydbapi/brewery/BznahA/upload_0FkKKl-icon.png,1852.0,43.1624453,-76.3096615,Baldwinsville,13027,Production Facility,N,2885 Belgium Rd,New York,N,N
Anheuser-Busch InBev,Verified,https://s3.amazonaws.com/brewerydbapi/brewery/BznahA/upload_0FkKKl-icon.png,1852.0,34.2558728,-84.7831874,Cartersville,30121,Production Facility,N,100 Busch Dr NE,Georgia,N,N
Anheuser-Busch InBev,Verified,https://s3.amazonaws.com/brewerydbapi/brewery/BznahA/upload_0FkKKl-icon.png,1852.0,40.102482,-82.9933123,Columbus,43229,Production Facility,N,700 Schrock Rd,Ohio,N,N
Anheuser-Busch InBev,Verified,https://s3.amazonaws.com/brewerydbapi/brewery/BznahA/upload_0FkKKl-icon.png,1852.0,38.236362,-122.091866,Fairfield,94534,Production Facility,N,3101 Busch Dr,California,N,N
Anheuser-Busch InBev,Verified,https://s3.amazonaws.com/brewerydbapi/brewery/BznahA/upload_0FkKKl-icon.png,1852.0,29.773088,-95.269255,Houston,77029,Production Facility,N,775 Gellhorn Dr,Texas,N,N
Anheuser-Busch InBev,Verified,https://s3.amazonaws.com/brewerydbapi/brewery/BznahA/upload_0FkKKl-icon.png,1852.0,30.433924,-81.650619,Jacksonville,32218,Production Facility,N,111 Busch Dr,Florida,N,N
Anheuser-Busch InBev,Verified,https://s3.amazonaws.com/brewerydbapi/brewery/BznahA/upload_0FkKKl-icon.png,1852.0,42.8260322,-71.4871372,Merrimack,03054,Production Facility,N,221 Daniel Webster Hwy,New Hampshire,N,N
Anheuser-Busch InBev,Verified,https://s3.amazonaws.com/brewerydbapi/brewery/BznahA/upload_0FkKKl-icon.png,1852.0,40.7067437,-74.1736086,Newark,07114,Production Facility,N,200 US Highway 1,New Jersey,N,N
Anheuser-Busch InBev,Verified,https://s3.amazonaws.com/brewerydbapi/brewery/BznahA/upload_0FkKKl-icon.png,1852.0,37.2381215,-76.652522,Williamsburg,23185,Production Facility,N,7801 Pocahontas Trail,Virginia,N,N
Animas Brewing Company,Verified,https://s3.amazonaws.com/brewerydbapi/brewery/Fx15t4/upload_tLNDWv-icon.png,2014.0,37.28001,-107.876761,Durango,81301,Micro Brewery,N,1560 East 2nd Ave,Colorado,N,Y
Ankerbräu,Verified,,1736.0,48.824261,10.459669,,86720,Micro Brewery,N,Ankergasse 4,Nördlingen,N,Y
Anomaly Brewing Company,Verified,https://s3.amazonaws.com/brewerydbapi/brewery/DwycsI/upload_dpKEYu-icon.png,,39.737567,-104.9847179,Denver,,Micro Brewery,N,,Colorado,Y,Y
Anspach & Hobday,Verified,https://s3.amazonaws.com/brewerydbapi/brewery/xFBkSs/upload_yKhbB5-icon.png,,51.4987047,-0.0734369,London,SE1 2HH,Micro Brewery,N,118 Druid Street,London,N,Y
Anthem Brewing Company,Verified,https://s3.amazonaws.com/brewerydbapi/brewery/TqC06u/upload_7t7ZFH-icon.png,2011.0,35.4610601,-97.5283956,Oklahoma City,73109,Micro Brewery,N,908 SW 4th St,Oklahoma,Y,Y
Antica Birreria di Trieste,Verified,,1766.0,45.8090431,12.2406843,Treviso,31040,Micro Brewery,N,"via Foscarini, 52 Nervesa della Battaglia",,N,Y
Antietam Brewery,Verified,https://s3.amazonaws.com/brewerydbapi/brewery/K1AZTL/upload_6ih1cD-icon.png,2012.0,39.633603,-77.699894,Hagerstown,21740,Micro Brewery,Y,49 Eastern Blvd N,Maryland,N,Y
Antigona Cerveza Artesanal,Verified,,,-12.021184,-77.0758733,San Martin de Porres,,Micro Brewery,N,Urb. Virgen del Rosario,Lima,N,Y
Antwerpse Brouw Compagnie,Verified,https://s3.amazonaws.com/brewerydbapi/brewery/EyfTAr/upload_pDzu19-icon.png,,51.2194475,4.4024643,,,Micro Brewery,N,,Antwerp,N,Y
Apatinska Pivara A.D.,Verified,,,0.0,0.0,,25250,Micro Brewery,N,Trg Oslobođenja 5,Apatin,N,Y
Aphrodite's Rock Brewing Company,Verified,https://s3.amazonaws.com/brewerydbapi/brewery/tHii3J/upload_SozpWR-icon.png,2013.0,0.0,0.0,Tsada,8540,Micro Brewery,N,Polis Road,Paphos,N,Y
Apocalypse Ale Works,Verified,https://s3.amazonaws.com/brewerydbapi/brewery/AEIXNf/upload_7rUPDd-icon.png,2012.0,37.361933,-79.287925,Forest,24551,Micro Brewery,N,1257 Burnbridge Rd,Virginia,N,Y
Apocalypse Brew Works,Verified,https://s3.amazonaws.com/brewerydbapi/brewery/ZWWuXN/upload_BVsG33-icon.png,2012.0,38.256101,-85.720227,Louisville,40206,Micro Brewery,N,1612 Mellwood Avenue,Kentucky,N,Y
Apostelbräu Hauzenberg,Verified,,,48.63903,13.63454,Bavaria,,Micro Brewery,N,Eben 11-15 Hauzenberg,,N,Y
Appalachian Brewing Company,Verified,https://s3.amazonaws.com/brewerydbapi/brewery/oJWOqb/upload_3qnzFE-icon.png,1951.0,40.2657809,-76.8755,Harrisburg,17110,Brewpub,N,50 N. Cameron St.,Pennsylvania,N,Y
Appalachian Brewing Company,Verified,https://s3.amazonaws.com/brewerydbapi/brewery/oJWOqb/upload_3qnzFE-icon.png,1951.0,39.835312,-77.245052,Gettysburg,17325,Brewpub,N,401 Buford Ave,Pennsylvania,N,N
Appalachian Brewing Company,Verified,https://s3.amazonaws.com/brewerydbapi/brewery/oJWOqb/upload_3qnzFE-icon.png,1951.0,40.238345,-76.946072,Camp Hill,17011,Brewpub,N,3721 Market St,Pennsylvania,N,N
Appalachian Brewing Company,Verified,https://s3.amazonaws.com/brewerydbapi/brewery/oJWOqb/upload_3qnzFE-icon.png,1951.0,40.1945395,-75.4730908,Collegeville,19426,Brewpub,N,50 West 3rd Avenue,Pennsylvania,N,N
Appalachian Brewing Company,Verified,https://s3.amazonaws.com/brewerydbapi/brewery/oJWOqb/upload_3qnzFE-icon.png,1951.0,40.157852,-76.30072,Lititz,17543,Brewpub,N,55 N. Water Street,Pennsylvania,N,N
Appalachian Brewing Company,Verified,https://s3.amazonaws.com/brewerydbapi/brewery/oJWOqb/upload_3qnzFE-icon.png,1951.0,40.247203,-77.016953,Mechanicsburg,17050,Brewpub,N,6462 Carlisle Pike,Pennsylvania,N,N
Appalachian Brewing Company,Verified,https://s3.amazonaws.com/brewerydbapi/brewery/oJWOqb/upload_3qnzFE-icon.png,1951.0,39.842617,-77.191945,Gettysburg,17325,Brewpub,N,70 Presidential Circle,Pennsylvania,N,N
Appalachian Mountain Brewery,Verified,https://s3.amazonaws.com/brewerydbapi/brewery/mcYO9v/upload_qpF6c7-icon.png,2013.0,36.2033443,-81.6685954,Boone,28607,Micro Brewery,N,163 Boone Creek Drive,North Carolina,N,Y
Appanoose Rapids Brewing Co,Verified,https://s3.amazonaws.com/brewerydbapi/brewery/69uoGL/upload_5dvqnH-icon.png,,41.0159351,-92.4100086,Ottumwa,52501,Micro Brewery,N,332 E Main St,Iowa,N,Y
Apple Blossom Brewing Company,Verified,https://s3.amazonaws.com/brewerydbapi/brewery/DyARul/upload_FsMGQ8-icon.png,2013.0,36.1319739,-94.1176782,Fayetteville,72703,Brewpub,N,1550 E Zion Rd,Arkansas,N,Y
Apple Knocker Cider,Verified,,,37.5605788,-89.1900856,Cobden,62920,Micro Brewery,N,2655 Water Valley Rd,Illinois,N,Y
Appleton Beer Factory,Verified,https://s3.amazonaws.com/brewerydbapi/brewery/tSSP68/upload_kJFlIo-icon.png,2013.0,44.261193,-88.4144759,Appleton,54914,Brewpub,N,603 W. College Ave.,Wisconsin,N,Y
Appleton Brewing,Verified,,1989.0,44.2531994,-88.4033024,Appleton,54915,Micro Brewery,Y,1004 South Old Oneida,Wisconsin,N,Y
Applewood Winery,Verified,https://s3.amazonaws.com/brewerydbapi/brewery/MAkuUT/upload_f8JVzO-icon.png,1993.0,41.2946382,-74.3098791,Warwick,10990,Cidery,N,82 Four Corners Road,NewYork,N,Y
Aquamarine Springs Brewing,Verified,,,42.2759507,-83.7496545,Ann Arbor,48104,Restaurant/Ale House,N,507 South Ashley St.,Michigan,Y,N
Aquanaut Brewing Company,Verified,https://s3.amazonaws.com/brewerydbapi/brewery/8XoJRh/upload_wzV3HK-icon.png,2014.0,41.980887,-87.6760709,Chicago,60640,Production Facility,N,5435 N Wolcott Ave,Illinois,N,Y
Aqueduct Brewing,Verified,https://s3.amazonaws.com/brewerydbapi/brewery/LQiRwU/upload_c6u6ML-icon.png,2014.0,41.068941,-81.5174766,Akron,44311,Micro Brewery,N,529 Grant Street,Ohio,N,Y
Arbor Ales,Verified,https://s3.amazonaws.com/brewerydbapi/brewery/3CT0MA/upload_DEcqbY-icon.png,2007.0,51.4583567,-2.5694249,Lawrence Hill,BS5 0EB,Production Facility,N,Unit 4 Lawrence Hill Industrial Park,Bristol,N,Y
Arbor Ales,Verified,https://s3.amazonaws.com/brewerydbapi/brewery/3CT0MA/upload_DEcqbY-icon.png,2007.0,51.4586634,-2.5581766,Bristol,BS5 9LA,Tasting Room,N,147 Church Rd,,N,N
Arbor Ales,Verified,https://s3.amazonaws.com/brewerydbapi/brewery/3CT0MA/upload_DEcqbY-icon.png,2007.0,51.4511176,-2.6049702,Bristol,BS1 5UR,Restaurant/Ale House,N,78 Saint George's Road,,N,N
Arbor Brewing Company,Verified,https://s3.amazonaws.com/brewerydbapi/brewery/N0HzAh/upload_3nlxTl-icon.png,1995.0,42.2804754,-83.7483644,Ann Arbor,48104,Brewpub,N,114 East Washington,Michigan,N,Y
Arcade Brewery,Verified,https://s3.amazonaws.com/brewerydbapi/brewery/My8aco/upload_Wk2ox4-icon.png,2011.0,41.9321086,-87.6928329,Chicago,60647,Micro Brewery,N,"2601 W. Diversey Ave,",Illinois,N,Y
Arcadia Ales,Verified,https://s3.amazonaws.com/brewerydbapi/brewery/2wy19T/upload_R5AvP9-icon.png,1996.0,42.3219871,-85.185145,Battle Creek,49017,Micro Brewery,N,103 West Michigan Avenue,Michigan,N,N
Arcadia Ales,Verified,https://s3.amazonaws.com/brewerydbapi/brewery/2wy19T/upload_R5AvP9-icon.png,1996.0,42.2947549,-85.5725225,Kalamazoo,49007,Micro Brewery,N,701 E. Michigan,Michigan,N,Y
Arcadian Moon,Verified,https://s3.amazonaws.com/brewerydbapi/brewery/TGdhO5/upload_0eonOn-icon.png,2013.0,39.0326762,-93.7232005,Higginsville,64037,Micro Brewery,N,19203 Old U.S. 40,Montana,N,Y
Arcana Brewing Company,Verified,https://s3.amazonaws.com/brewerydbapi/brewery/VJn8SA/upload_2hzQRc-icon.png,2012.0,33.1402104,-117.2739244,Carlsbad,92010,Micro Brewery,N,5621 Palmer Way,California,N,Y
Arcane Manor Brewing,Verified,,,35.7795897,-78.6381787,Raleigh,,Micro Brewery,N,Arcane Manor Brewing,North Carolina,N,Y
Arch Rock Brewing Company,Verified,https://s3.amazonaws.com/brewerydbapi/brewery/eJlHAD/upload_5uBF4O-icon.png,2012.0,42.3889236,-124.4154474,Gold Beach,97444,Micro Brewery,N,28779 Hunter Creek Loop,Oregon,N,Y
Arches Brewery,Verified,,,33.662732,-84.409736,Hapeville,30354,Micro Brewery,N,3361 Dogwood Dr.,Georgia,N,N
Archibald Microbrasserie,Verified,https://s3.amazonaws.com/brewerydbapi/brewery/58w0FX/upload_pTA0of-icon.png,2005.0,46.9380213,-71.3076291,Lac-Beauport,g3b0x1,Brewpub,N,"1021, boul. du Lac",Québec,N,Y
Archibald Microbrasserie,Verified,https://s3.amazonaws.com/brewerydbapi/brewery/58w0FX/upload_pTA0of-icon.png,2005.0,46.7862906,-71.3533881,Québec,g2g2b5,Brewpub,N,"1240, Autoroute Duplessis",Québec,N,N
Arclight Brewing,Verified,https://s3.amazonaws.com/brewerydbapi/brewery/B1CQlI/upload_BvQvMr-icon.png,2014.0,42.1910809,-86.258322,Watervliet,49098,Micro Brewery,N,544 N. Main Street,Michigan,N,Y
Arcobrau Grafliches Brauhaus,Verified,,,47.65704,8.91227,Moos,94554,Micro Brewery,N,Schlossalle 1,Baden-Wurttemberg,N,Y
Ardent Craft Ales,Verified,https://s3.amazonaws.com/brewerydbapi/brewery/mfPozZ/upload_LfH3I5-icon.png,2014.0,37.5681484,-77.471961,Richmond,23230-4410,Micro Brewery,N,3200 W Leigh St,Virginia,N,Y
Area 51 Craft Brewery,Verified,https://s3.amazonaws.com/brewerydbapi/brewery/XTrGE0/upload_5D7SbJ-icon.png,2011.0,33.945887,-117.4512128,Riverside,92503,Micro Brewery,N,7123 Arlington Ave.,California,N,Y
Argilla Brewing Co. @ Pietro's Pizza,Verified,https://s3.amazonaws.com/brewerydbapi/brewery/XF4JJ4/upload_vFtibG-icon.png,2012.0,39.7082968,-75.6844023,Newark,19711,Brewpub,N,2667 Kirkwood Highway,Delaware,N,Y
Argus Brewery,Verified,https://s3.amazonaws.com/brewerydbapi/brewery/KnMQZD/upload_ZzDIOp-icon.png,,41.688562,-87.612153,Chicago,60628-5007,Micro Brewery,N,11314 S Front Ave,Illinois,N,Y
Argyle Brewing Company,Verified,https://s3.amazonaws.com/brewerydbapi/brewery/0v0P7r/upload_FvTppu-icon.png,,43.0876097,-73.4970156,Greenwich,12834,Micro Brewery,N,1 Main St.,New York,N,Y
Arizona Wilderness Brewing Company,Verified,https://s3.amazonaws.com/brewerydbapi/brewery/Ixo7Nb/upload_N4OzjC-icon.png,2013.0,33.363016,-111.841114,Gilbert,85233,Micro Brewery,N,721 N Arizona Ave.,Arizona,N,Y
Arkane Aleworks,Verified,https://s3.amazonaws.com/brewerydbapi/brewery/aUOkUs/upload_6WsWRI-icon.png,2016.0,27.9180956,-82.7603711,Largo,33771,Micro Brewery,N,2480 E. Bay Drive #23,Florida,Y,Y
Arkell's Brewery,Verified,https://s3.amazonaws.com/brewerydbapi/brewery/9Vvgcr/upload_IxbeMs-icon.png,1864.0,51.5933,-1.759518,,SN2 7RU,Micro Brewery,N,Kingsdown Brewery,Swindon,N,Y
Arkose Brewery,Verified,https://s3.amazonaws.com/brewerydbapi/brewery/4JAg2G/upload_q4sV3W-icon.png,2011.0,61.5816306,-149.1060793,Palmer,99645,Micro Brewery,N,650 East Sreel Loop,Alaska,N,Y
Arktos Meadery,Verified,https://s3.amazonaws.com/brewerydbapi/brewery/ejzxPj/upload_fmod8D-icon.png,2013.0,42.9402208,-85.6792783,Grand Rapids,49503,Meadery,N,1251 Century Ave SW Suite 200,Michigan,N,Y
Armada Cervejeira,Verified,https://s3.amazonaws.com/brewerydbapi/brewery/NbUc05/upload_zVjaop-icon.png,2016.0,-27.6003398,-48.6204248,São José,88102-500,Micro Brewery,N,400 - Kobrasol,Santa Catarina,N,Y
Armadillo Ale Works,Verified,https://s3.amazonaws.com/brewerydbapi/brewery/x75Eie/upload_HirB4i-icon.png,2010.0,33.216565,-97.130984,Denton,76202,Micro Brewery,N,,Texas,N,Y
Armstrong Ales,Verified,https://s3.amazonaws.com/brewerydbapi/brewery/3L3Ir6/upload_Txfzn4-icon.png,2012.0,40.1355094,-75.5458611,Phoenixville,19460,Nano Brewery,Y,1000 Hollingsworth Dr,Pennsylvania,N,Y
Around the Bend Beer Co.,Verified,https://s3.amazonaws.com/brewerydbapi/brewery/T83Ot9/upload_KldPlK-icon.png,2014.0,41.931994,-87.6933002,Chicago,60647,Micro Brewery,N,2601 W Diversey,Illinois,N,Y
Arrowhead Ales Brewing Company,Verified,https://s3.amazonaws.com/brewerydbapi/brewery/CBTZYn/upload_mFUDSN-icon.png,2010.0,41.4813717,-87.9589688,New Lenox,604560451,Micro Brewery,N,2101 Calistoga Dr,Illinois,N,N
Arrowood Farms Brewery,Verified,,,41.805443,-74.2501406,Accord,12404,Micro Brewery,N,236 Lower Whitfield,New York,N,N
Arsenal Cider House,Verified,https://s3.amazonaws.com/brewerydbapi/brewery/UNLN4B/upload_CxATJz-icon.png,,40.4650785,-79.9609539,Pittsburgh,15201,Cidery,N,300 39th Street,Pennsylvania,N,Y
Artful Dodger Brewing Co,Verified,,,43.6252932,-84.2512159,Midland,48640,Micro Brewery,N,1504 W Saint Andrews Rd,Michigan,N,Y
Artifact Cider Project,Verified,https://s3.amazonaws.com/brewerydbapi/brewery/CIs31G/upload_IvuD13-icon.png,2013.0,42.120638,-72.574443,Springfield,01105,Micro Brewery,N,"270 Albany St. , MA",Massachusetts,N,Y
Artifex Brewing Company,Verified,https://s3.amazonaws.com/brewerydbapi/brewery/uGY7WE/upload_91z0kG-icon.png,2014.0,33.4493503,-117.605586,San Clemente,,Tasting Room,N,919 Calle Amanecer,California,N,Y
Artisan's Brewery & Italian Grill,Verified,https://s3.amazonaws.com/brewerydbapi/brewery/G5qvbf/upload_tDGvNu-icon.png,,39.9767305,-74.1828937,Tom's River,08753,Brewpub,N,1171 Hooper Avenue,New Jersey,N,Y
Artisinal Brew Works,"New, Unverified",,,43.059909,-73.81449,Saratoga Springs,12866,Micro Brewery,N,41 Geyser Road,NY,N,N
Artland Brauerei,Verified,,2007.0,52.61706,7.859219,Nortrup,49638,Micro Brewery,N,Elmar Wiemers Haller Str. 4,Lower Saxony,N,Y
Arts District Brewing,Verified,,,34.0445635,-118.2355338,Los Angeles,90013,Micro Brewery,N,828 Traction Ave.,California,N,Y
ArtScience Brewery,Verified,,2010.0,40.050198,-105.09055,Lafayette,80026,Micro Brewery,N,11255 Dobbins Run,Colorado,Y,Y
Arvada Beer Company,Verified,https://s3.amazonaws.com/brewerydbapi/brewery/iTdcPm/upload_wbfW2s-icon.png,2010.0,39.7993081,-105.0812513,Arvada,80002,Micro Brewery,Y,5600 Olde Wadsworth Blvd,Colorado,N,Y
Asahi Breweries,Verified,,,35.709646,139.799797,Tokyo,,Micro Brewery,N,23-1 Azumabashi 1-chome,Kanto,N,Y
Ascension Brewing Company,Verified,https://s3.amazonaws.com/brewerydbapi/brewery/ckfWgi/upload_xcHeVk-icon.png,,42.4771911,-83.4592178,Novi,,Nano Brewery,N,42000 Grand River Avenue,Michigan,N,Y
Ash & Elm Cider Co.,Verified,https://s3.amazonaws.com/brewerydbapi/brewery/RFdert/upload_4KbKk3-icon.png,2016.0,39.768019,-86.1252559,Indianapolis,46201,Micro Brewery,N,2104 E Washington Street,Indiana,N,N
Asher Brewing Company,Verified,https://s3.amazonaws.com/brewerydbapi/brewery/TnKZHG/upload_lUWwKY-icon.png,2009.0,40.059769,-105.2059084,Boulder,80301,Micro Brewery,N,4699 Nautilus Court,Colorado,N,Y
Asheville Brewing Company,Verified,https://s3.amazonaws.com/brewerydbapi/brewery/WDrFlD/upload_NOtbmn-icon.png,1998.0,35.6221051,-82.5537092,Asheville,28804,Brewpub,N,675 Merrimon Avenue,North Carolina,N,Y
Asheville Brewing Company,Verified,https://s3.amazonaws.com/brewerydbapi/brewery/WDrFlD/upload_NOtbmn-icon.png,1998.0,35.5917433,-82.5553572,Asheville,28804,Brewpub,N,77 Coxe Avenue,North Carolina,N,N
Ashton Brewing Company,Verified,https://s3.amazonaws.com/brewerydbapi/brewery/ep0mnG/upload_nNDNFu-icon.png,2013.0,45.3970175,-75.6882953,Beckwith,K1S2T5,Micro Brewery,N,159 Old Mill Rd,Ottawa,N,Y
Ashtown Brewing Company,Verified,https://s3.amazonaws.com/brewerydbapi/brewery/w4Qouf/upload_6tbwFJ-icon.png,2010.0,46.1367144,-122.9328484,Longview,98632,Micro Brewery,N,1175 Hudson St,Washington,N,Y
Ashuelot Brewing Company,Verified,https://s3.amazonaws.com/brewerydbapi/brewery/bsknvY/upload_EDWYmv-icon.png,2014.0,42.7595702,-72.2337508,Richmond,03470,Macro Brewery,N,101 Old County Road,New Hampshire,N,Y
Asia Pacific Breweries Ltd.,Verified,,1931.0,1.3361749,103.647081,Singapore,39934,Macro Brewery,N,459 Jalan Ahmad Ibrahim,Singapore,N,Y
Aslan Brewing Company,Verified,https://s3.amazonaws.com/brewerydbapi/brewery/wh4o0B/upload_33yaNa-icon.png,2012.0,48.748395,-122.474484,Bellingham,98225,Brewpub,N,1330 N Forest St,Washington,N,Y
Aslin Beer Co.,Verified,https://s3.amazonaws.com/brewerydbapi/brewery/OCwm38/upload_UOVVIC-icon.png,2015.0,38.95637,-77.374976,Herndon,,Micro Brewery,N,257 Sunset Park Dr.,Virginia,N,Y
Aspall Cyder,Verified,https://s3.amazonaws.com/brewerydbapi/brewery/O1V2iY/upload_y0BAlK-icon.png,1728.0,52.2218497,1.1646459,Debenham,IP146PD,Micro Brewery,N,Aspall Hall,Suffolk,N,Y
Aspen Brewing Company,Verified,https://s3.amazonaws.com/brewerydbapi/brewery/673NQh/upload_xxazrg-icon.png,2008.0,39.190334,-106.820307,Aspen,81611,Micro Brewery,N,304 East Hopkins Avenue,Colorado,N,Y
Ass Clown Brewing Company,Verified,https://s3.amazonaws.com/brewerydbapi/brewery/SWMzJ3/upload_VIuw0b-icon.png,2011.0,35.4577774,-80.8545343,Cornelius,28031,Micro Brewery,N,10620 Bailey Road,North Carolina,N,Y
Ass Kisser Ales,Verified,https://s3.amazonaws.com/brewerydbapi/brewery/pqSkmD/upload_SCPVg2-icon.png,2010.0,32.7297295,-97.4154334,Fort Worth,76116,Micro Brewery,Y,6040 Camp Bowie Blvd,Texas,N,Y
Assawoman Bay Brewing Company,Verified,https://s3.amazonaws.com/brewerydbapi/brewery/txE7yT/upload_VUNCk7-icon.png,2014.0,38.3712057,-75.0703421,Ocean City,,Micro Brewery,N,45th Street,Maryland,N,Y
Assawoman Bay Brewing Company,Verified,https://s3.amazonaws.com/brewerydbapi/brewery/txE7yT/upload_VUNCk7-icon.png,2014.0,38.3660484,-75.6005827,Salisbury,21801,Micro Brewery,N,116 N. Division Street,Maryland,N,Y
Astra,Verified,,,56.1868335,24.7387567,Biržai,,Micro Brewery,N,Plento g. 49,,N,Y
ateck Pivovar,Verified,,,0.0,0.0,atec,,Micro Brewery,N,ikovo nmst 81,,N,Y
Athenian Brewery,Verified,https://s3.amazonaws.com/brewerydbapi/brewery/krIs45/upload_FSTFqv-icon.png,1963.0,37.9837155,23.7293097,,,Micro Brewery,N,102 Kifissou Avenue,Athens,N,Y
Athens Brewing Co.,Verified,,,32.2054112,-95.8536936,Athens,75751,Micro Brewery,N,101 E. Tyler St.,Texas,Y,N
Athens Brewing Co.,Verified,,,32.2054114,-95.8536936,Athens,75751,Micro Brewery,N,101 E. Tyler St,Texas,N,N
Atlanta Brewing Company,Verified,,,33.818002,-84.435253,Atlanta,30318,Micro Brewery,N,2323 Defoor Hills Rd NW,Georgia,N,Y
Atlantic Brewing Company,Verified,https://s3.amazonaws.com/brewerydbapi/brewery/zUkUMx/upload_WrbSKO-icon.png,1991.0,44.399624,-68.3333,Bar Harbor,04609,Micro Brewery,N,15 Knox Rd.,Maine,N,Y
Atlantic Brewing Company,Verified,https://s3.amazonaws.com/brewerydbapi/brewery/zUkUMx/upload_WrbSKO-icon.png,1991.0,44.387297,-68.2047479,Bar Harbor,04609,Tasting Room,N,8 Mt. Desert Street,Maine,N,N
Atlas Brew Works,Verified,https://s3.amazonaws.com/brewerydbapi/brewery/h4nmEO/upload_5SuBT4-icon.png,2012.0,38.914857,-76.981435,Washington,20002,Micro Brewery,N,2052 West Virginia Avenue NE,District of Columbia,N,Y
Atlas Brewing Company,Verified,https://s3.amazonaws.com/brewerydbapi/brewery/IqPdv8/upload_GcXgo7-icon.png,,41.9319149,-87.6572838,Chicago,60614,Brewpub,N,2747 N. Lincoln Ave.,Illinois,N,Y
Atlas Cider Company,Verified,https://s3.amazonaws.com/brewerydbapi/brewery/dphaZd/upload_14RjNj-icon.png,,44.044722,-121.292135,Oregon,97702,Micro Brewery,N,900 SE Wilson Ave,,N,Y
Atom Brewing,Verified,,,53.7772204,-0.3470202,Hull,HU7 0YF,Micro Brewery,N,Unit 4 Food & Tech Park Malmo Road,East Yorkshire,N,Y
Atomic Ale Brewpub and Eatery,Verified,https://s3.amazonaws.com/brewerydbapi/brewery/h9obbv/upload_f8Ea10-icon.png,1997.0,46.274522,-119.277307,Richland,99352,Brewpub,N,1015 Lee Blvd,Washington,N,Y
Atwater Brewery,Verified,https://s3.amazonaws.com/brewerydbapi/brewery/boTIWO/upload_qHbhaE-icon.png,1997.0,42.337152,-83.018559,Detroit,48207,Micro Brewery,N,237 Joseph Campau Street,Michigan,N,Y
Atwater Brewery,Verified,https://s3.amazonaws.com/brewerydbapi/brewery/boTIWO/upload_qHbhaE-icon.png,1997.0,42.381259,-82.940102,Grosse Pointe Park,48230,Brewpub,N,1175 Lakepointe St,Michigan,N,N
Auberge Sutton Brouërie,Verified,,2015.0,45.1053411,-72.6152754,Sutton,J0E 2K0,Micro Brewery,N,27 Rue Principale Sud St.,Quebec,N,Y
Auburn Alehouse,Verified,https://s3.amazonaws.com/brewerydbapi/brewery/iQmBa8/upload_qwMesB-icon.png,2007.0,38.8949179,-121.078789,Auburn,95603,Micro Brewery,N,289 Washington Street,California,N,Y
Audacity Brew House,Verified,https://s3.amazonaws.com/brewerydbapi/brewery/sf4ixn/upload_qZ1F0a-icon.png,,33.199714,-97.120267,Denton,76205,Micro Brewery,N,1012 Shady Oaks Dr.,Texas,N,Y
August Schell Brewing Company,Verified,https://s3.amazonaws.com/brewerydbapi/brewery/E8C6fp/upload_Ne2vEp-icon.png,1860.0,44.2896306,-94.4489735,New Ulm,56073,Micro Brewery,N,1860 Schell Road,Minnesota,N,Y
Augusta Brewing Co.,Verified,https://s3.amazonaws.com/brewerydbapi/brewery/Sldiyh/upload_jKJ6Yd-icon.png,,38.5702098,-90.8801653,Augusta,63332,Micro Brewery,N,5221 Water Street,Missouri,N,Y
Augusta Brewing Co.,Verified,https://s3.amazonaws.com/brewerydbapi/brewery/Sldiyh/upload_jKJ6Yd-icon.png,,38.5602855,-91.0117841,Washington,63090,Micro Brewery,N,109 West Main Street,Missouri,N,N
Augusta Brewing Co.,Verified,https://s3.amazonaws.com/brewerydbapi/brewery/Sldiyh/upload_jKJ6Yd-icon.png,,38.5600468,-91.0118297,Washington,63090,Micro Brewery,N,107 West Main Street,Missouri,N,N
Augustiner-Bräu,Verified,https://s3.amazonaws.com/brewerydbapi/brewery/55MX88/upload_WOWown-icon.png,1328.0,0.0,0.0,München,80339,Micro Brewery,N,Landsberger Straße 31-35,Bayern,N,Y
Aurora Ale & Lager Co,Verified,https://s3.amazonaws.com/brewerydbapi/brewery/KSb4lK/upload_GLkEO2-icon.png,,42.709732,-76.682381,King Ferry,13081,Micro Brewery,N,1891 State Rt. 90,New York,N,Y
Ausable Brewing Co.,Verified,https://s3.amazonaws.com/brewerydbapi/brewery/BUIXqS/upload_3G65At-icon.png,2014.0,44.503003,-73.447753,Keeseville,12944,Micro Brewery,N,765 Mace Chasm Rd,New York,N,Y
Ausschank Pfaffen Brauerei Max Päffgen,Verified,,,50.937428,6.960701,Cologne,50667,Micro Brewery,N,Heumarkt 62,,N,Y
Austin Beerworks,Verified,https://s3.amazonaws.com/brewerydbapi/brewery/LIbwCG/upload_wEPD6s-icon.png,2011.0,30.37976,-97.730224,Austin,78758,Micro Brewery,N,3009 Industrial Terrace,Texas,N,Y
Austin Brothers Beer Co.,Verified,https://s3.amazonaws.com/brewerydbapi/brewery/cTjBDt/upload_hwVfDZ-icon.png,,45.0730557,-83.4360848,Alpena,49707,Micro Brewery,N,821 W Miller St.,Michigan,N,Y
Austin Eastciders,Verified,https://s3.amazonaws.com/brewerydbapi/brewery/AX8kAi/upload_eBiuCY-icon.png,2011.0,30.2634602,-97.6961052,Austin,78702,Cidery,N,979 Springdale Rd,Texas,N,Y
Austin Street Brewery,Verified,,,43.702795,-70.319935,Portland,04103,Micro Brewery,N,1 Industrial Way,Maine,N,Y
Australian Beer Connoisseurs,Verified,,,0.0,0.0,,,Macro Brewery,N,,,N,Y
Australian Brewery,Verified,https://s3.amazonaws.com/brewerydbapi/brewery/Ss4cvk/upload_onRztv-icon.png,2010.0,-33.674124,150.912377,Rouse Hill,2155,Micro Brewery,N,350 Annangrove Rd,New South Wales,N,Y
Australian Brewing Corporation,Verified,,,-37.966139,144.521569,Little River,3211,Micro Brewery,N,229-255 Old Melbourne Road,Victoria,N,Y
